line,order,stop_street,next_cross_street,landmark,shelter,sign,flag,address_for_geocode,location_type,geocode_type,formatted_address,latitude,longitude
Red Line North,102,Broadway,Dobbs,Hogg Middle School,,TRUE,,"Broadway and Dobbs, Tyler, TX",APPROXIMATE,intersection,"S Broadway Ave & W Dobbs St, Tyler, TX 75701, USA",32.3390825,-95.3005939
Red Line North,103,Broadway,Charnwood,Jones Hearing (Doctor Office),,TRUE,,"Broadway and Charnwood, Tyler, TX",APPROXIMATE,intersection,"S Broadway Ave & E Charnwood St, Tyler, TX 75701, USA",32.3425503,-95.3005975
Red Line North,104,Broadway,Houston,United Healthcare,,TRUE,,"Broadway and Houston, Tyler, TX",APPROXIMATE,intersection,"S Broadway Ave & W Houston St, Tyler, TX 75702, USA",32.3437484,-95.3006179
Red Line North,106,Broadway,Elm,Across from Library,,TRUE,,"Broadway and Elm, Tyler, TX",APPROXIMATE,intersection,"S Broadway Ave & W Elm St, Tyler, TX 75702, USA",32.3496758,-95.3006165
Red Line North,107,Broadway,Ferguson,Regions Bank,,TRUE,,"Broadway and Ferguson, Tyler, TX",APPROXIMATE,intersection,"N Broadway Ave & W Ferguson St, Tyler, TX 75702, USA",32.3517199,-95.3006202
Red Line North,108,Broadway,Bow,Salvation Army,TRUE,TRUE,,"Broadway and Bow, Tyler, TX",APPROXIMATE,intersection,"N Broadway Ave & E Bow St, Tyler, TX 75702, USA",32.3582207,-95.3007293
Red Line North,109,Broadway,Queen,Roberts Juvenile Building,,TRUE,,"Broadway and Queen, Tyler, TX",APPROXIMATE,intersection,"N Broadway Ave & W Queen St, Tyler, TX 75702, USA",32.3615884,-95.3015438
Red Line North,110,Broadway,Cedar,,,TRUE,,"Broadway and Cedar, Tyler, TX",APPROXIMATE,intersection,"N Broadway Ave & W Cedar St, Tyler, TX 75702, USA",32.3638406,-95.3015429
Red Line North,111,Broadway,Franklin,,,TRUE,,"Broadway and Franklin, Tyler, TX",APPROXIMATE,intersection,"N Broadway Ave & W Franklin St, Tyler, TX 75702, USA",32.3663907,-95.3015265
Red Line North,112,Broadway,MLK,Iglesia Church,,TRUE,,"Broadway and MLK, Tyler, TX",APPROXIMATE,intersection,"N Broadway Ave & W Martin Luther King Jr Blvd, Tyler, TX 75702, USA",32.3701775,-95.3018846
Red Line North,113,Broadway,Barrett,Christian Teaching,,TRUE,,"Broadway and Barrett, Tyler, TX",APPROXIMATE,intersection,"N Broadway Ave & W Barrett St, Tyler, TX 75702, USA",32.3710892,-95.3018776
Red Line North,114,Broadway,26th,Liberty Arms/Apt,TRUE,TRUE,,"Broadway and 26th, Tyler, TX",APPROXIMATE,locality,"Tyler, TX, USA",32.3512601,-95.3010624
Red Line North,115,32nd,,Boys and Girls / Glass Center,TRUE,TRUE,,,,,,,
Red Line North,116,32nd,Glass Ave,Woldert Park,,TRUE,,"32nd and Glass Ave, Tyler, TX",GEOMETRIC_CENTER,route,"Glass Ave, Tyler, TX 75702, USA",32.3777745,-95.3075782
Red Line North,117,32nd,Grande Ave,Before intersection,,TRUE,,"32nd and Grande Ave, Tyler, TX",APPROXIMATE,intersection,"N Grand Ave & 32nd St, Tyler, TX 75702, USA",32.3806581,-95.3108828
Red Line North,118,Grand,31st,,,TRUE,,"Grand and 31st, Tyler, TX",APPROXIMATE,intersection,"N Grand Ave & 31st St, Tyler, TX 75702, USA",32.3796333,-95.3108722
Red Line North,119,Grand,30th,,,TRUE,,"Grand and 30th, Tyler, TX",APPROXIMATE,intersection,"N Grand Ave & 30th St, Tyler, TX 75702, USA",32.3785565,-95.3108744
Red Line North,120,Grand,,Grand Manor,,TRUE,,,,,,,
Red Line North,121,Grand,,Texas College,TRUE,TRUE,,,,,,,
Red Line North,122,Grand,Barrett,,,TRUE,,"Grand and Barrett, Tyler, TX",APPROXIMATE,intersection,"W Barrett St & Grand Ave, Tyler, TX 75702, USA",32.3718922,-95.310993
Red Line North,123,MLK,Ross,,,TRUE,,"MLK and Ross, Tyler, TX",APPROXIMATE,intersection,"W Martin Luther King Jr Blvd & N Ross Ave, Tyler, TX 75702, USA",32.370384,-95.313424
Red Line North,124,MLK,Englewood,,,TRUE,,"MLK and Englewood, Tyler, TX",APPROXIMATE,intersection,"W Martin Luther King Jr Blvd & N Englewood Ave, Tyler, TX 75702, USA",32.3703611,-95.31572
Red Line North,125,MLK,Hill,,,TRUE,,"MLK and Hill, Tyler, TX",APPROXIMATE,intersection,"W Martin Luther King Jr Blvd & N Hill Ave, Tyler, TX 75702, USA",32.3703262,-95.3174758
Red Line North,126,Glenwood,Nancy,,,TRUE,,"Glenwood and Nancy, Tyler, TX",APPROXIMATE,intersection,"N Glenwood Blvd & Nancy Dr, Tyler, TX 75702, USA",32.3691577,-95.3189973
Red Line North,127,Glenwood,Harming,Dr. Pepper Company,,TRUE,,"Glenwood and Harming, Tyler, TX",APPROXIMATE,locality,"Tyler, TX, USA",32.3512601,-95.3010624
Red Line North,128,Glenwood,Gentry,Hickory Fair,,,TRUE,"Glenwood and Gentry, Tyler, TX",APPROXIMATE,intersection,"W Gentry Pkwy & N Glenwood Blvd, Tyler, TX 75702, USA",32.362212,-95.3189802
Red Line North,129,Gentry,Meadow,Labor Ready,,TRUE,,"Gentry and Meadow, Tyler, TX",APPROXIMATE,intersection,"W Gentry Pkwy & Meadow Ln, Tyler, TX 75702, USA",32.3610194,-95.3169634
Red Line North,130,Gentry,Bow and Ross,Exxon,,TRUE,,"Gentry and Bow and Ross, Tyler, TX",APPROXIMATE,locality,"Tyler, TX, USA",32.3512601,-95.3010624
Red Line North,131,Gentry,Palace,Neighborhood Services,TRUE,TRUE,,"Gentry and Palace, Tyler, TX",APPROXIMATE,intersection,"W Gentry Pkwy & N Palace Ave, Tyler, TX 75702, USA",32.3596003,-95.310238
Red Line North,132,Gentry,Harris,Building Blocks Day Care,,TRUE,,"Gentry and Harris, Tyler, TX",APPROXIMATE,intersection,"W Gentry Pkwy & N Harris Ave, Tyler, TX 75702, USA",32.3596162,-95.3075468
Red Line North,133,Gentry,Bois D'Arc,Bumper to Bumper Auto Pars,,TRUE,,"Gentry and Bois D'Arc, Tyler, TX",APPROXIMATE,locality,"Tyler, TX, USA",32.3512601,-95.3010624
Red Line North,134,Broadway,Bow,Catholic Church,,TRUE,,"Broadway and Bow, Tyler, TX",APPROXIMATE,intersection,"N Broadway Ave & E Bow St, Tyler, TX 75702, USA",32.3582207,-95.3007293
Red Line North,135,Broadway,Ferguson,KLTV,TRUE,TRUE,,"Broadway and Ferguson, Tyler, TX",APPROXIMATE,intersection,"N Broadway Ave & W Ferguson St, Tyler, TX 75702, USA",32.3517199,-95.3006202
Red Line North,136,Broadway,Elm,Expert Tire,,TRUE,,"Broadway and Elm, Tyler, TX",APPROXIMATE,intersection,"S Broadway Ave & W Elm St, Tyler, TX 75702, USA",32.3496758,-95.3006165
Red Line North,137,Broadway,Front,Catholic Church,TRUE,TRUE,,"Broadway and Front, Tyler, TX",APPROXIMATE,intersection,"S Broadway Ave & W Front St, Tyler, TX 75702, USA",32.3466213,-95.3005977
Red Line North,138,Houston,Spring,Birdsong and Armstrong,,TRUE,,"Houston and Spring, Tyler, TX",APPROXIMATE,intersection,"E Houston St & S Spring Ave, Tyler, TX 75702, USA",32.343741,-95.299551
Red Line North,139,Houston,Niblock,The Citadel Apartment,,TRUE,,"Houston and Niblock, Tyler, TX",APPROXIMATE,locality,"Tyler, TX, USA",32.3512601,-95.3010624
Red Line North,140,Beckham,Houston,Subway across from TMF,,TRUE,,"Beckham and Houston, Tyler, TX",APPROXIMATE,intersection,"S Beckham Ave & E Houston St, Tyler, TX 75702, USA",32.3435747,-95.2931815
Red Line North,141,Beckham,Hospital Dr,Olympic Plaza,TRUE,TRUE,,"Beckham and Hospital Dr, Tyler, TX",APPROXIMATE,intersection,"S Beckham Ave & Hospital Dr, Tyler, TX 75701, USA",32.337457,-95.2917058
Red Line North,142,Beckham,5th,Car Loan Place,,TRUE,,"Beckham and 5th, Tyler, TX",APPROXIMATE,intersection,"E 5th St & S Beckham Ave, Tyler, TX 75701, USA",32.3315885,-95.2904588
Red Line South,201,Broadway,Old Troup Hwy,Off Broadway Shopping Center,,TRUE,,"Broadway and Old Troup Hwy, Tyler, TX",GEOMETRIC_CENTER,route,"Old Troup Hwy, Tyler, TX, USA",32.307772,-95.267743
Red Line South,202,Broadway,Wilma,Azalea Post Office,TRUE,TRUE,,"Broadway and Wilma, Tyler, TX",APPROXIMATE,intersection,"S Broadway Ave & Wilma St, Tyler, TX 75701, USA",32.3206148,-95.3006314
Red Line South,203,Broadway,Fair Lane,Before intersection,,TRUE,,"Broadway and Fair Lane, Tyler, TX",APPROXIMATE,intersection,"S Broadway Ave & Fair Ln, Tyler, TX 75701, USA",32.3162756,-95.3006909
Red Line South,204,Broadway,Amherst,Barclay Apartments,,TRUE,,"Broadway and Amherst, Tyler, TX",APPROXIMATE,intersection,"S Broadway Ave & E Amherst St, Tyler, TX 75701, USA",32.3118095,-95.3006721
Red Line South,205,Broadway,Winchester,Department of Human Resources,TRUE,TRUE,,"Broadway and Winchester, Tyler, TX",APPROXIMATE,intersection,"S Broadway Ave & Winchester Dr, Tyler, TX 75701, USA",32.309232,-95.3006536
Red Line South,206,Broadway,Shelly,Burger King,TRUE,TRUE,,"Broadway and Shelly, Tyler, TX",APPROXIMATE,intersection,"S Broadway Ave & Shelley Dr, Tyler, TX 75701, USA",32.304456,-95.300672
Red Line South,207,Broadway,Loop 323,On the Border,,TRUE,,"Broadway and Loop 323, Tyler, TX",APPROXIMATE,intersection,"S Broadway Ave & W Southwest Loop 323, Tyler, TX 75701, USA",32.3029015,-95.3007536
Red Line South,208,Broadway,Shiloh / Rice,Broadway Mall / Sears,TRUE,TRUE,,"Broadway and Shiloh / Rice, Tyler, TX",APPROXIMATE,intersection,"S Broadway Ave & Rice Rd & Shiloh Rd, Tyler, TX 75703, USA",32.2948751,-95.3015578
Red Line South,209,Broadway,After Shiloh,Times Square Shopping Center,TRUE,TRUE,,"Broadway and After Shiloh, Tyler, TX",GEOMETRIC_CENTER,route,"Shiloh Rd, Tyler, TX, USA",32.2953135,-95.2748576
Red Line South,210,Broadway,Rieck,Sonic,,TRUE,,"Broadway and Rieck, Tyler, TX",APPROXIMATE,intersection,"S Broadway Ave & W Rieck Rd, Tyler, TX 75703, USA",32.2894749,-95.3032573
Red Line South,211,Broadway,Chimney Rock,Audio Video Center,,TRUE,,"Broadway and Chimney Rock, Tyler, TX",APPROXIMATE,intersection,"S Broadway Ave & Chimney Rock Dr, Tyler, TX 75703, USA",32.2848229,-95.3045973
Red Line South,212,Broadway,Grande,Bank of America,,TRUE,,"Broadway and Grande, Tyler, TX",APPROXIMATE,intersection,"S Broadway Ave & W Grande Blvd, Tyler, TX 75703, USA",32.2798967,-95.3058148
Red Line South,213,Broadway,,Little Red School House,,TRUE,,,,,,,
Red Line South,214,Broadway,,Cheddars,,TRUE,,,,,,,
Red Line South,215,South Town,Broadway,Walmart / Target,TRUE,TRUE,,"South Town and Broadway, Tyler, TX",APPROXIMATE,intersection,"S Broadway Ave & E South Town Dr, Tyler, TX 75703, USA",32.2740697,-95.3067964
Red Line South,216,Thigpen,,Carretas / Braums,,TRUE,,,,,,,
Red Line South,217,Thigpen,Gatewood,Brookhollow Apartments,,,TRUE,"Thigpen and Gatewood, Tyler, TX",APPROXIMATE,intersection,"Thigpen Rd & Gatewood Dr, Tyler, TX 75703, USA",32.2723578,-95.307957
Red Line South,218,Waljim,,Brookside Village,,TRUE,,,,,,,
Red Line South,219,Muller Garden,,Harborwood Apartments,,TRUE,,,,,,,
Red Line South,220,Broadway,Heritage,Carmike Theater,,TRUE,,"Broadway and Heritage, Tyler, TX",APPROXIMATE,intersection,"S Broadway Ave & W Heritage Dr, Tyler, TX 75703, USA",32.2664134,-95.3073293
Red Line South,221,Heritage,,Capital One Bank,,TRUE,,,,,,,
Red Line South,222,Broadway,,Don's Appliances / Piano Store,,TRUE,,,,,,,
Red Line South,223,Broadway,Grande,East Texas Medical Center,,TRUE,,"Broadway and Grande, Tyler, TX",APPROXIMATE,intersection,"S Broadway Ave & W Grande Blvd, Tyler, TX 75703, USA",32.2798967,-95.3058148
Red Line South,224,Broadway,Rieck,Ryan's Steak House,TRUE,TRUE,,"Broadway and Rieck, Tyler, TX",APPROXIMATE,intersection,"S Broadway Ave & W Rieck Rd, Tyler, TX 75703, USA",32.2894749,-95.3032573
Red Line South,225,Broadway,Shiloh / Rice,CVS / Barnes and Nobles,,TRUE,,"Broadway and Shiloh / Rice, Tyler, TX",APPROXIMATE,intersection,"S Broadway Ave & Rice Rd & Shiloh Rd, Tyler, TX 75703, USA",32.2948751,-95.3015578
Red Line South,226,Broadway,Independence,Chase Bank,,TRUE,,"Broadway and Independence, Tyler, TX",APPROXIMATE,intersection,"S Broadway Ave & Independence Pl, Tyler, TX 75703, USA",32.2988195,-95.3006235
Red Line South,227,Broadway,Winchester,McDonald's,,TRUE,,"Broadway and Winchester, Tyler, TX",APPROXIMATE,intersection,"S Broadway Ave & Winchester Dr, Tyler, TX 75701, USA",32.309232,-95.3006536
Red Line South,228,Broadway,Amherst,Taco Bell,,TRUE,,"Broadway and Amherst, Tyler, TX",APPROXIMATE,intersection,"S Broadway Ave & E Amherst St, Tyler, TX 75701, USA",32.3118095,-95.3006721
Red Line South,229,Broadway,Amherst,Pep Boys,TRUE,TRUE,,"Broadway and Amherst, Tyler, TX",APPROXIMATE,intersection,"S Broadway Ave & E Amherst St, Tyler, TX 75701, USA",32.3118095,-95.3006721
Red Line South,230,Broadway,Wilma,Timbers Apartments,,TRUE,,"Broadway and Wilma, Tyler, TX",APPROXIMATE,intersection,"S Broadway Ave & Wilma St, Tyler, TX 75701, USA",32.3206148,-95.3006314
Blue Line Northwest,301,4th,College,Bergfield Park,,TRUE,,"4th and College, Tyler, TX",APPROXIMATE,intersection,"W 4th St & S College Ave, Tyler, TX 75701, USA",32.3320257,-95.3026649
Blue Line Northwest,302,Glenwood,Kennedy,Plyler School,,TRUE,,"Glenwood and Kennedy, Tyler, TX",APPROXIMATE,intersection,"W Glenwood Blvd & Kennedy Ave, Tyler, TX 75701, USA",32.3315743,-95.3084654
Blue Line Northwest,303,Glenwood,Vine,Fire Station,,TRUE,,"Glenwood and Vine, Tyler, TX",APPROXIMATE,intersection,"S Glenwood Blvd & S Vine Ave, Tyler, TX 75701, USA",32.332235,-95.3112529
Blue Line Northwest,304,Glenwood,Lindsey,Water Tower,,TRUE,,"Glenwood and Lindsey, Tyler, TX",APPROXIMATE,intersection,"S Glenwood Blvd & Lindsey Ln, Tyler, TX 75701, USA",32.3378793,-95.3128857
Blue Line Northwest,305,Glenwood,Houston,Tire Barn,,TRUE,,"Glenwood and Houston, Tyler, TX",APPROXIMATE,intersection,"S Glenwood Blvd & W Houston St, Tyler, TX 75702, USA",32.3437341,-95.3124071
Blue Line Northwest,306,Glenwood,Front,ETMC Offices,,,TRUE,"Glenwood and Front, Tyler, TX",APPROXIMATE,intersection,"W Front St & S Glenwood Blvd, Tyler, TX 75702, USA",32.3466248,-95.3157294
Blue Line Northwest,307,Glenwood,Loller,Toni Smith Auto,,TRUE,,"Glenwood and Loller, Tyler, TX",APPROXIMATE,intersection,"N Glenwood Blvd & W Lollar St, Tyler, TX 75702, USA",32.3543677,-95.3192131
Blue Line Northwest,308,Glenwood,Forest,Fun Forrest,,TRUE,,"Glenwood and Forest, Tyler, TX",APPROXIMATE,intersection,"N Glenwood Blvd & Forest Ave, Tyler, TX 75702, USA",32.3615431,-95.3189978
Blue Line Northwest,309,Gentry,Glenwood,Hickory Fare Rest,TRUE,TRUE,,"Gentry and Glenwood, Tyler, TX",APPROXIMATE,intersection,"W Gentry Pkwy & N Glenwood Blvd, Tyler, TX 75702, USA",32.362212,-95.3189802
Blue Line Northwest,310,Gentry,Parkdale Drive,Ace Check Cashing,,TRUE,,"Gentry and Parkdale Drive, Tyler, TX",APPROXIMATE,intersection,"W Gentry Pkwy & N Parkdale Dr, Tyler, TX 75702, USA",32.3654033,-95.3235981
Blue Line Northwest,311,Gentry,MLK,Zoo,,TRUE,,"Gentry and MLK, Tyler, TX",APPROXIMATE,intersection,"W Gentry Pkwy & W Martin Luther King Jr Blvd, Tyler, TX 75702, USA",32.3674433,-95.3269754
Blue Line Northwest,312,Gentry,Van HWY/110,Taco Bell,,TRUE,,"Gentry and Van HWY/110, Tyler, TX",APPROXIMATE,intersection,"Rte 110 & Van Hwy & W Gentry Pkwy, Tyler, TX 75702, USA",32.3696847,-95.3311067
Blue Line Northwest,313,Gentry,Baldwin,Tyler Day Nursery,,TRUE,,"Gentry and Baldwin, Tyler, TX",APPROXIMATE,intersection,"W Gentry Pkwy & Baldwin Dr, Tyler, TX 75702, USA",32.371004,-95.3321318
Blue Line Northwest,314,Gentry,Jordan,McDonald's,TRUE,TRUE,,"Gentry and Jordan, Tyler, TX",APPROXIMATE,intersection,"W Gentry Pkwy & Jordan St, Tyler, TX 75702, USA",32.376318,-95.3320126
Blue Line Northwest,315,Gentry,,Across from Motel 6,,TRUE,,,,,,,
Blue Line Northwest,316,Loop 323,Hwy 89 North,Quality Inn,TRUE,TRUE,,"Loop 323 and Hwy 89 North, Tyler, TX",APPROXIMATE,locality,"Tyler, TX, USA",32.3512601,-95.3010624
Blue Line Northwest,317,Loop 323,Silver Creek Drive,12 Oaks Motel,,TRUE,,"Loop 323 and Silver Creek Drive, Tyler, TX",APPROXIMATE,intersection,"Texas 323 Loop & Silver Creek Dr, Tyler, TX 75702, USA",32.3787973,-95.3389939
Blue Line Northwest,318,Loop 323,Cope,Car Wash,,,TRUE,"Loop 323 and Cope, Tyler, TX",APPROXIMATE,intersection,"Texas 323 Loop & Cope St, Tyler, TX 75702, USA",32.3725651,-95.3433884
Blue Line Northwest,319,Loop 323,Garden Valley,Family Dollar,,TRUE,,"Loop 323 and Garden Valley, Tyler, TX",APPROXIMATE,intersection,"Texas 323 Loop & Garden Valley Rd, Tyler, TX 75704, USA",32.3685387,-95.3433187
Blue Line Northwest,320,Loop 323,Lion Lane,John Tyler High School,TRUE,TRUE,,"Loop 323 and Lion Lane, Tyler, TX",APPROXIMATE,intersection,"Texas 323 Loop & Lion Dr, Tyler, TX 75702, USA",32.3618164,-95.3433129
Blue Line Northwest,321,Erwin,Loop 323,Greenbrier Nursing Home,,TRUE,,"Erwin and Loop 323, Tyler, TX",APPROXIMATE,intersection,"S Southeast Loop 323 & E Erwin St, Tyler, TX 75702, USA",32.3525078,-95.2677164
Blue Line Northwest,322,Erwin,Willowbrook,Across from Country Club,,TRUE,,"Erwin and Willowbrook, Tyler, TX",APPROXIMATE,intersection,"W Erwin St & Willowbrook Ave, Tyler, TX 75702, USA",32.3515141,-95.3355383
Blue Line Northwest,323,Erwin,,Cross Roads Apartments,,TRUE,,,,,,,
Blue Line Northwest,324,Erwin,Lyons,Across from Save-a-lot,,TRUE,,"Erwin and Lyons, Tyler, TX",APPROXIMATE,intersection,"W Erwin St & S Lyons Ave, Tyler, TX 75702, USA",32.3501977,-95.3262635
Blue Line Northwest,325,Lyons,Front,Andrews Center,,TRUE,,"Lyons and Front, Tyler, TX",APPROXIMATE,intersection,"W Front St & S Lyons Ave, Tyler, TX 75702, USA",32.3465365,-95.3261963
Blue Line Northwest,326,Front,,Rose Garden / Harvey Convention Center,TRUE,TRUE,,,,,,,
Blue Line Northwest,327,Front,Fenton,The Children's Place,,TRUE,,"Front and Fenton, Tyler, TX",APPROXIMATE,intersection,"W Front St & S Fenton Ave, Tyler, TX 75702, USA",32.346566,-95.319272
Blue Line Northwest,328,Front,Hill,Cotton Belt Building,,TRUE,,"Front and Hill, Tyler, TX",APPROXIMATE,intersection,"W Front St & S Hill Ave, Tyler, TX 75702, USA",32.3465867,-95.3180449
Blue Line Northwest,329,Glenwood,Shaw,Water Tower,,TRUE,,"Glenwood and Shaw, Tyler, TX",APPROXIMATE,intersection,"S Glenwood Blvd & Shaw St, Tyler, TX 75701, USA",32.336898,-95.3129306
Blue Line Northwest,330,Glenwood,Kennedy,Across from Plyer School,,TRUE,,"Glenwood and Kennedy, Tyler, TX",APPROXIMATE,intersection,"W Glenwood Blvd & Kennedy Ave, Tyler, TX 75701, USA",32.3315743,-95.3084654
Blue Line Northwest,331,Glenwood,Robertson,Before intersection,,TRUE,,"Glenwood and Robertson, Tyler, TX",APPROXIMATE,intersection,"W Glenwood Blvd & S Robertson Ave, Tyler, TX 75701, USA",32.3310594,-95.3065307
Blue Line Northwest,332,5th,Chilton,Before intersection,,TRUE,,"5th and Chilton, Tyler, TX",APPROXIMATE,intersection,"Chilton Ave & W 5th St, Tyler, TX 75701, USA",32.331023,-95.3047152
Blue Line Southwest,401,4th,College,Bergfield Park,,TRUE,,"4th and College, Tyler, TX",APPROXIMATE,intersection,"W 4th St & S College Ave, Tyler, TX 75701, USA",32.3320257,-95.3026649
Blue Line Southwest,402,Glenwood,Kennedy,Plyler School,,TRUE,,"Glenwood and Kennedy, Tyler, TX",APPROXIMATE,intersection,"W Glenwood Blvd & Kennedy Ave, Tyler, TX 75701, USA",32.3315743,-95.3084654
Blue Line Southwest,403,Vine,5th,Donut Shop,,TRUE,,"Vine and 5th, Tyler, TX",APPROXIMATE,intersection,"S Vine Ave & W 5th St, Tyler, TX 75701, USA",32.3306497,-95.3119401
Blue Line Southwest,404,Frankston,Mosley,,,TRUE,,"Frankston and Mosley, Tyler, TX",APPROXIMATE,intersection,"Frankston Hwy & Mosely St, Tyler, TX 75701, USA",32.3242453,-95.3181575
Blue Line Southwest,405,Frankston,Walton,Fire Station,TRUE,TRUE,,"Frankston and Walton, Tyler, TX",APPROXIMATE,intersection,"Frankston Hwy & Walton Rd, Tyler, TX 75701, USA",32.3193637,-95.3239834
Blue Line Southwest,406,Walton,Monroe,,,TRUE,,"Walton and Monroe, Tyler, TX",APPROXIMATE,intersection,"Walton Rd & Monroe Ave, Tyler, TX 75701, USA",32.319398,-95.3252564
Blue Line Southwest,407,Walton,Rhinehart,Smith Temple Church,,TRUE,,"Walton and Rhinehart, Tyler, TX",APPROXIMATE,intersection,"Walton Rd & Rhinehart St, Tyler, TX 75701, USA",32.3193595,-95.3290573
Blue Line Southwest,408,Walton,Deprest,Across from St. Louis School,,TRUE,,"Walton and Deprest, Tyler, TX",APPROXIMATE,intersection,"Walton Rd & Depriest Ave, Tyler, TX 75701, USA",32.319333,-95.3316916
Blue Line Southwest,409,Walton,Jersey,At intersection,,TRUE,,"Walton and Jersey, Tyler, TX",APPROXIMATE,intersection,"Walton Rd & Jersey St, Tyler, TX 75701, USA",32.319314,-95.3369189
Blue Line Southwest,410,Walton,Loop 323,Southwest Pines Apartments,TRUE,TRUE,,"Walton and Loop 323, Tyler, TX",APPROXIMATE,intersection,"W Southwest Loop 323 & Walton Rd, Tyler, TX, USA",32.319296,-95.342323
Blue Line Southwest,411,Robertson,Loop 323,RTDC School,TRUE,TRUE,,"Robertson and Loop 323, Tyler, TX",APPROXIMATE,intersection,"W Southwest Loop 323 & Robertson Rd, Tyler, TX 75701, USA",32.3329202,-95.3404694
Blue Line Southwest,412,Robertson,Bennet,Andrews Center,,TRUE,,"Robertson and Bennet, Tyler, TX",APPROXIMATE,intersection,"Robertson Rd & Bennett Ave, Tyler, TX 75701, USA",32.3329453,-95.3366865
Blue Line Southwest,413,Shaw,Loop 323 WSW,Hollywood Theater,,TRUE,,"Shaw and Loop 323 WSW, Tyler, TX",APPROXIMATE,locality,"Tyler, TX, USA",32.3512601,-95.3010624
Blue Line Southwest,414,Front,Loop 323,Westwood Shopping Center,TRUE,TRUE,,"Front and Loop 323, Tyler, TX",APPROXIMATE,intersection,"E Front St & S Southeast Loop 323, Tyler, TX 75702, USA",32.3476611,-95.2673456
Blue Line Southwest,415,Front,Southgate,,,,TRUE,"Front and Southgate, Tyler, TX",APPROXIMATE,intersection,"W Front St & Southgate Ave, Tyler, TX 75702, USA",32.3465089,-95.3332157
Blue Line Southwest,416,Front,Lyons,Andrews Center,TRUE,TRUE,,"Front and Lyons, Tyler, TX",APPROXIMATE,intersection,"W Front St & S Lyons Ave, Tyler, TX 75702, USA",32.3465365,-95.3261963
Blue Line Southwest,417,Bellwood,Lyons,,,TRUE,,"Bellwood and Lyons, Tyler, TX",APPROXIMATE,intersection,"Bellwood Rd & S Lyons Ave, Tyler, TX 75701, USA",32.340493,-95.3262018
Blue Line Southwest,418,Bellwood,,Parkview Apartments,TRUE,TRUE,,,,,,,
Blue Line Southwest,419,Bellwood,Peach,Pete School,,TRUE,,"Bellwood and Peach, Tyler, TX",APPROXIMATE,intersection,"Bellwood Rd & Peach Ave, Tyler, TX 75701, USA",32.3419452,-95.32011
Blue Line Southwest,420,Houston,Confederate,,,TRUE,,"Houston and Confederate, Tyler, TX",APPROXIMATE,intersection,"W Houston St & S Confederate Ave, Tyler, TX 75701, USA",32.3437156,-95.3147207
Blue Line Southwest,421,Houston,Palace,Across from Fina Station,,TRUE,,"Houston and Palace, Tyler, TX",APPROXIMATE,intersection,"W Houston St & S Palace Ave, Tyler, TX 75701, USA",32.3437058,-95.3102064
Blue Line Southwest,422,Vine,Rusk,Big Blue House,,TRUE,,"Vine and Rusk, Tyler, TX",APPROXIMATE,intersection,"S Vine Ave & Rusk St, Tyler, TX 75701, USA",32.3413309,-95.3086858
Blue Line Southwest,423,Vine,Lindsey,Gonzales Grocery,,TRUE,,"Vine and Lindsey, Tyler, TX",APPROXIMATE,intersection,"S Vine Ave & Lindsey Ln, Tyler, TX 75701, USA",32.3379366,-95.3085795
Blue Line Southwest,424,Vine,Mockingbird,Pt Cole Park,,TRUE,,"Vine and Mockingbird, Tyler, TX",APPROXIMATE,intersection,"S Vine Ave & Mockingbird Ln, Tyler, TX 75701, USA",32.3359845,-95.3091988
Blue Line Southwest,425,Glenwood,Kennedy,Plyler School,,TRUE,,"Glenwood and Kennedy, Tyler, TX",APPROXIMATE,intersection,"W Glenwood Blvd & Kennedy Ave, Tyler, TX 75701, USA",32.3315743,-95.3084654
Blue Line Southwest,426,5th,Robertson,Before intersection,,TRUE,,"5th and Robertson, Tyler, TX",APPROXIMATE,intersection,"S Robertson Ave & W 5th St, Tyler, TX 75701, USA",32.3310594,-95.3065307
Blue Line Southwest,427,5th,Chilton,Before intersection,,TRUE,,"5th and Chilton, Tyler, TX",APPROXIMATE,intersection,"Chilton Ave & W 5th St, Tyler, TX 75701, USA",32.331023,-95.3047152
Green Line Northeast,501,Donnybrook,6th,,,TRUE,,"Donnybrook and 6th, Tyler, TX",APPROXIMATE,intersection,"S Donnybrook Ave & E 6th St, Tyler, TX 75701, USA",32.3294552,-95.2975218
Green Line Northeast,502,Beckham,,Donut Palace,,TRUE,,,,,,,
Green Line Northeast,503,Beckham,Lake,ETMC Hospital,TRUE,TRUE,,"Beckham and Lake, Tyler, TX",APPROXIMATE,intersection,"S Beckham Ave & E Lake St, Tyler, TX 75701, USA",32.336353,-95.291454
Green Line Northeast,504,Beckham,Dawson,Trinity Mother Francis,TRUE,TRUE,,"Beckham and Dawson, Tyler, TX",APPROXIMATE,intersection,"S Beckham Ave & E Dawson St, Tyler, TX 75701, USA",32.3422592,-95.2927752
Green Line Northeast,505,Beckham,Front,Dairy Queen,,TRUE,,"Beckham and Front, Tyler, TX",APPROXIMATE,intersection,"E Front St & S Beckham Ave, Tyler, TX 75702, USA",32.3466484,-95.2942625
Green Line Northeast,506,Beckham,Elm,Good S. Church,,TRUE,,"Beckham and Elm, Tyler, TX",APPROXIMATE,intersection,"S Beckham Ave & E Elm St, Tyler, TX 75702, USA",32.3495702,-95.2942901
Green Line Northeast,507,Beckham,Locust,Across from Mexican Meat Market,,TRUE,,"Beckham and Locust, Tyler, TX",APPROXIMATE,intersection,"N Beckham Ave & E Locust St, Tyler, TX 75702, USA",32.352632,-95.2943695
Green Line Northeast,508,HWY 271,,Super One Foods,,TRUE,,,,,,,
Green Line Northeast,509,HWY 271,Hillsboro,Family Dollar,,TRUE,,"HWY 271 and Hillsboro, Tyler, TX",APPROXIMATE,intersection,"U.S. 271 & Hillsboro St, Tyler, TX 75702, USA",32.3651104,-95.2898863
Green Line Northeast,510,HWY 271,Laurel,Fred's,,TRUE,,"HWY 271 and Laurel, Tyler, TX",APPROXIMATE,intersection,"U.S. 271 & E Laurel St, Tyler, TX 75702, USA",32.3663592,-95.2894587
Green Line Northeast,511,HWY 271,MLK,Relax Inn,,TRUE,,"HWY 271 and MLK, Tyler, TX",APPROXIMATE,intersection,"U.S. 271 & E Martin Luther King Jr Blvd, Tyler, TX 75702, USA",32.3699059,-95.2884119
Green Line Northeast,512,MLK,Haynie,,,TRUE,,"MLK and Haynie, Tyler, TX",APPROXIMATE,locality,"Tyler, TX, USA",32.3512601,-95.3010624
Green Line Northeast,513,MLK,Church St,,,TRUE,,"MLK and Church St, Tyler, TX",APPROXIMATE,intersection,"E Martin Luther King Jr Blvd & Church Ave, Tyler, TX 75702, USA",32.370168,-95.297117
Green Line Northeast,514,MLK,North Spring,,,TRUE,,"MLK and North Spring, Tyler, TX",APPROXIMATE,intersection,"E Martin Luther King Jr Blvd & N Spring Ave, Tyler, TX 75702, USA",32.3701724,-95.299637
Green Line Northeast,515,Broadway,Nutbush,Rail Road Crossing,,TRUE,,"Broadway and Nutbush, Tyler, TX",APPROXIMATE,intersection,"N Broadway Ave & W Nutbush St, Tyler, TX 75702, USA",32.3691466,-95.3018669
Green Line Northeast,516,Broadway,Cedar,,,TRUE,,"Broadway and Cedar, Tyler, TX",APPROXIMATE,intersection,"N Broadway Ave & W Cedar St, Tyler, TX 75702, USA",32.3638406,-95.3015429
Green Line Northeast,517,Broadway,Queen,City Park,,TRUE,,"Broadway and Queen, Tyler, TX",APPROXIMATE,intersection,"N Broadway Ave & W Queen St, Tyler, TX 75702, USA",32.3615884,-95.3015438
Green Line Northeast,518,Gentry,Broadway,Health District,,TRUE,,"Gentry and Broadway, Tyler, TX",APPROXIMATE,intersection,"W Gentry Pkwy & N Broadway Ave, Tyler, TX 75702, USA",32.359458,-95.3012504
Green Line Northeast,519,Gentry,Beckham,Old WIC Office,,TRUE,,"Gentry and Beckham, Tyler, TX",APPROXIMATE,intersection,"E Gentry Pkwy & N Beckham Ave, Tyler, TX 75702, USA",32.3598945,-95.2934023
Green Line Northeast,520,Oakwood,Spring,Tyler Transit Office,,TRUE,,"Oakwood and Spring, Tyler, TX",APPROXIMATE,intersection,"N Spring Ave & E Oakwood St, Tyler, TX 75702, USA",32.3545932,-95.2995197
Green Line Northeast,521,Beckham,Locust,Mexican Meat Market,,TRUE,,"Beckham and Locust, Tyler, TX",APPROXIMATE,intersection,"N Beckham Ave & E Locust St, Tyler, TX 75702, USA",32.352632,-95.2943695
Green Line Northeast,522,Beckham,Elm,Mexican Hair Dresser,,TRUE,,"Beckham and Elm, Tyler, TX",APPROXIMATE,intersection,"S Beckham Ave & E Elm St, Tyler, TX 75702, USA",32.3495702,-95.2942901
Green Line Northeast,523,Front,Beckham,Dairy Queen,,TRUE,,"Front and Beckham, Tyler, TX",APPROXIMATE,intersection,"E Front St & S Beckham Ave, Tyler, TX 75702, USA",32.3466484,-95.2942625
Green Line Northeast,524,Front,Baxter,St. Paul Church,,TRUE,,"Front and Baxter, Tyler, TX",APPROXIMATE,intersection,"E Front St & S Baxter Ave, Tyler, TX 75702, USA",32.3463418,-95.2855266
Green Line Northeast,525,Front,Palmer,Dehaven Eye Clinic,,TRUE,,"Front and Palmer, Tyler, TX",APPROXIMATE,intersection,"E Front St & Palmer Ave, Tyler, TX 75702, USA",32.3463718,-95.2803378
Green Line Northeast,526,Front,Old Henderson,Fruit Stand,,TRUE,,"Front and Old Henderson, Tyler, TX",APPROXIMATE,intersection,"E Front St & Old Henderson Hwy, Tyler, TX 75702, USA",32.3466634,-95.2741492
Green Line Northeast,527,Golden,,Salvation Army Apartments,,TRUE,,,,,,,
Green Line Northeast,528,Golden,,Moore Middle School,,TRUE,,,,,,,
Green Line Northeast,529,Golden,5th,,,TRUE,,"Golden and 5th, Tyler, TX",APPROXIMATE,intersection,"E 5th St & Golden Rd, Tyler, TX 75701, USA",32.3321815,-95.2727339
Green Line Northeast,530,5th,Tipton,Dewayne Restaurant,,TRUE,,"5th and Tipton, Tyler, TX",APPROXIMATE,intersection,"E 5th St & Tipton Ave, Tyler, TX 75701, USA",32.3322336,-95.2750125
Green Line Northeast,532,5th,Palmer,After Light at Church,,TRUE,,"5th and Palmer, Tyler, TX",APPROXIMATE,intersection,"E 5th St & Palmer Ave, Tyler, TX 75701, USA",32.3324004,-95.280242
Green Line Northeast,533,5th,Baxter,TJC College,TRUE,TRUE,,"5th and Baxter, Tyler, TX",APPROXIMATE,intersection,"E 5th St & S Baxter Ave, Tyler, TX 75701, USA",32.3324948,-95.2854533
Green Line Southeast,601,Donnybrook,6th,,,TRUE,,"Donnybrook and 6th, Tyler, TX",APPROXIMATE,intersection,"S Donnybrook Ave & E 6th St, Tyler, TX 75701, USA",32.3294552,-95.2975218
Green Line Southeast,602,5th,Fleishel,Tyler Medical Park,,TRUE,,"5th and Fleishel, Tyler, TX",APPROXIMATE,intersection,"E 5th St & S Fleishel Ave, Tyler, TX 75701, USA",32.3320263,-95.2887433
Green Line Southeast,603,5th,Baxter,Weiner Land,,TRUE,,"5th and Baxter, Tyler, TX",APPROXIMATE,intersection,"E 5th St & S Baxter Ave, Tyler, TX 75701, USA",32.3324948,-95.2854533
Green Line Southeast,604,5th,Mahon,Community Access,,TRUE,,"5th and Mahon, Tyler, TX",APPROXIMATE,intersection,"E 5th St & S Mahon Ave, Tyler, TX 75701, USA",32.3324453,-95.2821737
Green Line Southeast,605,5th,Tipton,The Medicine Shop,,TRUE,,"5th and Tipton, Tyler, TX",APPROXIMATE,intersection,"E 5th St & Tipton Ave, Tyler, TX 75701, USA",32.3322336,-95.2750125
Green Line Southeast,606,5th,Golden,Park Place Nurse,,TRUE,,"5th and Golden, Tyler, TX",APPROXIMATE,intersection,"E 5th St & Golden Rd, Tyler, TX 75701, USA",32.3321815,-95.2727339
Green Line Southeast,607,5th,Loop 323,Dairy Queen,,,TRUE,"5th and Loop 323, Tyler, TX",APPROXIMATE,intersection,"E 5th St & S Southeast Loop 323, Tyler, TX 75701, USA",32.3323542,-95.2662163
Green Line Southeast,608,Loop 323,,What-a-burger / Kidd Jones,,TRUE,,,,,,,
Green Line Southeast,609,Loop 323,,Swann's Furniture,,TRUE,,,,,,,
Green Line Southeast,610,Loop 323,,Aspen Place / Fox Run Apartments,,TRUE,,,,,,,
Green Line Southeast,611,University,Telephone,Franklin Bank,,TRUE,,"University and Telephone, Tyler, TX",APPROXIMATE,intersection,"University Blvd & Telephone Rd, Tyler, TX 75707, USA",32.3116544,-95.2663413
Green Line Southeast,612,University,Lazy Creek,Grace Communications School,,TRUE,,"University and Lazy Creek, Tyler, TX",APPROXIMATE,intersection,"University Blvd & Lazy Creek Dr, Tyler, TX 75701, USA",32.3115714,-95.2582616
Green Line Southeast,613,University,UT Tyler,Sterling House,,TRUE,,"University and UT Tyler, Tyler, TX",APPROXIMATE,locality,"Tyler, TX, USA",32.3512601,-95.3010624
Green Line Southeast,614,University,,ETMC Behavior Clinic,,TRUE,,,,,,,
Green Line Southeast,615,Old Omen,,Across from UT,TRUE,TRUE,,,,,,,
Green Line Southeast,616,Old Omen,Sandlewood,Rose Heights Church,TRUE,TRUE,,"Old Omen and Sandlewood, Tyler, TX",APPROXIMATE,intersection,"Old Omen Rd & Sandalwood Ln, Tyler, TX 75701, USA",32.3262394,-95.254826
Green Line Southeast,617,Old Omen,Lemont,Fair Wood Church,,TRUE,,"Old Omen and Lemont, Tyler, TX",APPROXIMATE,locality,"Tyler, TX, USA",32.3512601,-95.3010624
Green Line Southeast,618,5th,Loop 323,Taco Bell,TRUE,TRUE,,"5th and Loop 323, Tyler, TX",APPROXIMATE,intersection,"E 5th St & S Southeast Loop 323, Tyler, TX 75701, USA",32.3323542,-95.2662163
Green Line Southeast,619,5th,Golden,Eye Care Associates,,TRUE,,"5th and Golden, Tyler, TX",APPROXIMATE,intersection,"E 5th St & Golden Rd, Tyler, TX 75701, USA",32.3321815,-95.2727339
Green Line Southeast,620,5th,Tipton,Dwayne Restaurant,,TRUE,,"5th and Tipton, Tyler, TX",APPROXIMATE,intersection,"E 5th St & Tipton Ave, Tyler, TX 75701, USA",32.3322336,-95.2750125
Green Line Southeast,622,5th,Palmer,TJC Fields,,TRUE,,"5th and Palmer, Tyler, TX",APPROXIMATE,intersection,"E 5th St & Palmer Ave, Tyler, TX 75701, USA",32.3324004,-95.280242
Green Line Southeast,622,5th,Baxter,TJC College,TRUE,TRUE,,"5th and Baxter, Tyler, TX",APPROXIMATE,intersection,"E 5th St & S Baxter Ave, Tyler, TX 75701, USA",32.3324948,-95.2854533
Yellow Line Southwest,701,Old Jacksonville,Sunnybrook,Good Shepherd School,,TRUE,,"Old Jacksonville and Sunnybrook, Tyler, TX",APPROXIMATE,intersection,"Old Jacksonville Hwy & Sunnybrook Dr, Tyler, TX 75701, USA",32.3213907,-95.3078108
Yellow Line Southwest,702,Old Jacksonville,Lake Placid,Past Grace Communications School,,TRUE,,"Old Jacksonville and Lake Placid, Tyler, TX",APPROXIMATE,intersection,"Old Jacksonville Hwy & Lake Placid Rd, Tyler, TX 75701, USA",32.3128635,-95.3156138
Yellow Line Southwest,703,Old Jacksonville,Vine,Nursing Home,,TRUE,,"Old Jacksonville and Vine, Tyler, TX",APPROXIMATE,intersection,"Old Jacksonville Hwy & S Vine Ave, Tyler, TX 75701, USA",32.3095268,-95.3203764
Yellow Line Southwest,704,Old Jacksonville,Loop 323,Home Depot,,TRUE,,"Old Jacksonville and Loop 323, Tyler, TX",APPROXIMATE,intersection,"Old Jacksonville Hwy & W Southwest Loop 323, Tyler, TX 75701, USA",32.303654,-95.3226488
Yellow Line Southwest,705,Loop 323,Lindsey,Red Lobster,,TRUE,,"Loop 323 and Lindsey, Tyler, TX",APPROXIMATE,locality,"Tyler, TX, USA",32.3512601,-95.3010624
Yellow Line Southwest,706,Loop 323,Kinsey,Keith Hodges Collision,,TRUE,,"Loop 323 and Kinsey, Tyler, TX",APPROXIMATE,intersection,"W Southwest Loop 323 & Kinsey Dr, Tyler, TX 75701, USA",32.3036778,-95.3151645
Yellow Line Southwest,707,Loop 323,,Chuck E Cheese,,TRUE,,,,,,,
Yellow Line Southwest,708,Old Bullard,Boyd,Dental Office / Across from Mall,,TRUE,,"Old Bullard and Boyd, Tyler, TX",APPROXIMATE,intersection,"Old Bullard Rd & Boyd Ln, Tyler, TX 75703, USA",32.2994074,-95.3044001
Yellow Line Southwest,709,Old Bullard,Timber Wilde,Across from Sears,,TRUE,,"Old Bullard and Timber Wilde, Tyler, TX",APPROXIMATE,locality,"Tyler, TX, USA",32.3512601,-95.3010624
Yellow Line Southwest,710,Old Bullard,Rice,Ashley Furniture,,TRUE,,"Old Bullard and Rice, Tyler, TX",APPROXIMATE,intersection,"Rice Rd & Old Bullard Rd, Tyler, TX 75703, USA",32.2948042,-95.3048947
Yellow Line Southwest,711,Old Bullard,Carriage,Rice School,,TRUE,,"Old Bullard and Carriage, Tyler, TX",APPROXIMATE,intersection,"Old Bullard Rd & Carriage Dr, Tyler, TX 75703, USA",32.2922632,-95.3055937
Yellow Line Southwest,712,Old Bullard,Chimney Rock,Bullard Crossing Apartments,,TRUE,,"Old Bullard and Chimney Rock, Tyler, TX",APPROXIMATE,intersection,"Old Bullard Rd & Chimney Rock Dr, Tyler, TX 75703, USA",32.2852282,-95.3065728
Yellow Line Southwest,713,Old Bullard,Old Grande,Salada main entrance,,TRUE,,"Old Bullard and Old Grande, Tyler, TX",APPROXIMATE,intersection,"Old Bullard Rd & Old Grande Blvd, Tyler, TX 75703, USA",32.2824739,-95.3069365
Yellow Line Southwest,714,Old Bullard,Old Grande,Salada at Grande,,TRUE,,"Old Bullard and Old Grande, Tyler, TX",APPROXIMATE,intersection,"Old Bullard Rd & Old Grande Blvd, Tyler, TX 75703, USA",32.2824739,-95.3069365
Yellow Line Southwest,715,Old Grande,Wilshire,,,TRUE,,"Old Grande and Wilshire, Tyler, TX",APPROXIMATE,intersection,"Old Grande Blvd & Wilshire Dr, Tyler, TX 75703, USA",32.2811096,-95.3105278
Yellow Line Southwest,716,Grande,Hollytree,Hollytree Storage,,TRUE,,"Grande and Hollytree, Tyler, TX",APPROXIMATE,intersection,"W Grande Blvd & Hollytree Dr, Tyler, TX 75703, USA",32.2798944,-95.3155372
Yellow Line Southwest,717,Grande,,Grande Hill Apartments,,TRUE,,,,,,,
Yellow Line Southwest,718,Grande,Glen Eagles,Grande Assisted Living,,TRUE,,"Grande and Glen Eagles, Tyler, TX",APPROXIMATE,intersection,"W Grande Blvd & Gleneagles Dr, Tyler, TX 75703, USA",32.2809162,-95.3291079
Yellow Line Southwest,719,Grande,Old Jacksonville,Texas Bank and Trust,,TRUE,,"Grande and Old Jacksonville, Tyler, TX",APPROXIMATE,intersection,"Old Jacksonville Hwy & W Grande Blvd, Tyler, TX 75703, USA",32.2809442,-95.3332229
Yellow Line Southwest,720,Old Jacksonville,,The Woodlands,,TRUE,,,,,,,
Yellow Line Southwest,721,Old Jacksonville,Rice,Vet Office,,TRUE,,"Old Jacksonville and Rice, Tyler, TX",APPROXIMATE,intersection,"Old Jacksonville Hwy & Rice Rd, Tyler, TX 75701, USA",32.2917519,-95.3265675
Yellow Line Southwest,722,Old Jacksonville,,Before Brookshires Wildlife Museum,,TRUE,,,,,,,
Yellow Line Southwest,723,Old Jacksonville,Loop 323,Brookshire's Wildlife Museum,,TRUE,,"Old Jacksonville and Loop 323, Tyler, TX",APPROXIMATE,intersection,"Old Jacksonville Hwy & W Southwest Loop 323, Tyler, TX 75701, USA",32.303654,-95.3226488
Yellow Line Southwest,724,Loop 323,Republic,Fairfield Inn,,TRUE,,"Loop 323 and Republic, Tyler, TX",APPROXIMATE,intersection,"W Southwest Loop 323 & Republic Dr, Tyler, TX 75701, USA",32.3036447,-95.3277749
Yellow Line Southwest,725,Loop 323,Republic,Golden China Cafe / Pawn Shop,,TRUE,,"Loop 323 and Republic, Tyler, TX",APPROXIMATE,intersection,"W Southwest Loop 323 & Republic Dr, Tyler, TX 75701, USA",32.3036447,-95.3277749
Yellow Line Southwest,726,Loop 323,,Sweet Sue's,,TRUE,,,,,,,
Yellow Line Southwest,728,Towne Park,,Villea of Pineridge,,TRUE,,,,,,,
Yellow Line Southwest,729,Loop 323,,Winser Inn,,TRUE,,,,,,,
Yellow Line Southwest,730,HWY 155,Goss,St. Louis Baptist Church,TRUE,TRUE,,"HWY 155 and Goss, Tyler, TX",APPROXIMATE,intersection,"Hwy 155 & Goss St, Tyler, TX 75701, USA",32.3074332,-95.3351117
Yellow Line Southwest,731,HWY 155,Seaton,Lone Star Storage,,TRUE,,"HWY 155 and Seaton, Tyler, TX",APPROXIMATE,intersection,"Hwy 155 & Seaton St, Tyler, TX 75701, USA",32.311004,-95.3320887
Yellow Line Southwest,732,HWY 155,Luther,City of Tyler Streets,,TRUE,,"HWY 155 and Luther, Tyler, TX",APPROXIMATE,intersection,"Hwy 155 & Luther St, Tyler, TX 75701, USA",32.3140587,-95.3291236
Yellow Line Southwest,733,HWY 155,Old Noonday,Fire Station,,TRUE,,"HWY 155 and Old Noonday, Tyler, TX",APPROXIMATE,intersection,"Hwy 155 & Old Noonday Rd, Tyler, TX 75701, USA",32.3212601,-95.3222356
Yellow Line Southwest,734,HWY 155,Sunnybrook,East Texas Child Advocacy,,TRUE,,"HWY 155 and Sunnybrook, Tyler, TX",APPROXIMATE,intersection,"Hwy 155 & Sunnybrook Dr, Tyler, TX 75701, USA",32.3276471,-95.3134399
Yellow Line Southwest,735,Sunnybrook,Camilla,Pedestrian Crosswalk,,,TRUE,"Sunnybrook and Camilla, Tyler, TX",APPROXIMATE,locality,"Tyler, TX, USA",32.3512601,-95.3010624
Yellow Line Southeast,801,Old Troup,Fleishel,Vacant Lot,,TRUE,,"Old Troup and Fleishel, Tyler, TX",APPROXIMATE,locality,"Tyler, TX, USA",32.3512601,-95.3010624
Yellow Line Southeast,802,Troup,Green Acres,Green Acres Shopping Center,,TRUE,,"Troup and Green Acres, Tyler, TX",APPROXIMATE,locality,"Tyler, TX, USA",32.3512601,-95.3010624
Yellow Line Southeast,803,Troup,Golden,Bank of America,,TRUE,,"Troup and Golden, Tyler, TX",APPROXIMATE,intersection,"Troup Hwy & Golden Rd, Tyler, TX 75701, USA",32.3139434,-95.2757074
Yellow Line Southeast,804,Troup,Lindburgh,Across from Texas Workforce,,TRUE,,"Troup and Lindburgh, Tyler, TX",APPROXIMATE,intersection,"Troup Hwy & Lindbergh Dr, Tyler, TX 75703, USA",32.3071807,-95.2717358
Yellow Line Southeast,805,Troup,Hillside,Highland Center,,TRUE,,"Troup and Hillside, Tyler, TX",APPROXIMATE,intersection,"Old Troup Hwy & Hillside Dr, Tyler, TX 75703, USA",32.3020881,-95.2651991
Yellow Line Southeast,806,Troup,Kensington,Etcil,TRUE,TRUE,,"Troup and Kensington, Tyler, TX",APPROXIMATE,intersection,"Troup Hwy & Kensington Dr, Tyler, TX 75703, USA",32.2997413,-95.2664391
Yellow Line Southeast,807,Troup,Shiloh,Chase Bank,TRUE,TRUE,,"Troup and Shiloh, Tyler, TX",APPROXIMATE,intersection,"Troup Hwy & Shiloh Rd, Tyler, TX 75707, USA",32.2953937,-95.2613905
Yellow Line Southeast,808,Shiloh,Thistle,Chelsea Creek Apartments,,TRUE,,"Shiloh and Thistle, Tyler, TX",APPROXIMATE,intersection,"Shiloh Rd & Thistle Dr, Tyler, TX 75703, USA",32.2953329,-95.2666412
Yellow Line Southeast,809,Shiloh,Kirkcaldey,Hidden Springs Apartments,,TRUE,,"Shiloh and Kirkcaldey, Tyler, TX",APPROXIMATE,intersection,"Shiloh Rd & Kirkcaldey Dr, Tyler, TX 75703, USA",32.2953325,-95.2723596
Yellow Line Southeast,810,Shiloh,Edinburgh,Shiloh Road Mobile Park,,TRUE,,"Shiloh and Edinburgh, Tyler, TX",APPROXIMATE,intersection,"Shiloh Rd & Edinburgh Dr, Tyler, TX 75703, USA",32.2953378,-95.2684622
Yellow Line Southeast,811,Shiloh,Edinburgh,Hidden Springs Apartments,,,,"Shiloh and Edinburgh, Tyler, TX",APPROXIMATE,intersection,"Shiloh Rd & Edinburgh Dr, Tyler, TX 75703, USA",32.2953378,-95.2684622
Yellow Line Southeast,812,Paluxy,Shiloh,The Ridge Apartments,,TRUE,,"Paluxy and Shiloh, Tyler, TX",APPROXIMATE,intersection,"Paluxy Dr & Shiloh Rd, Tyler, TX 75703, USA",32.2952896,-95.278834
Yellow Line Southeast,813,Paluxy,Sequoia,Meadowbrook Apartments,TRUE,TRUE,,"Paluxy and Sequoia, Tyler, TX",APPROXIMATE,intersection,"Paluxy Dr & Sequoia Dr, Tyler, TX 75703, USA",32.3015517,-95.2788955
Yellow Line Southeast,814,Linburgh,Troup,ETMC Sleep Center,,TRUE,,"Linburgh and Troup, Tyler, TX",APPROXIMATE,intersection,"Troup Hwy & Lindbergh Dr, Tyler, TX 75703, USA",32.3071807,-95.2717358
Yellow Line Southeast,815,Rickety,Southpark,Paluxy Square,,TRUE,,"Rickety and Southpark, Tyler, TX",APPROXIMATE,intersection,"Southpark Dr & Rickety Ln, Tyler, TX 75703, USA",32.3071956,-95.2757883
Yellow Line Southeast,816,Troup,Linberg,Super One Foods,TRUE,TRUE,,"Troup and Linberg, Tyler, TX",APPROXIMATE,intersection,"Troup Hwy & Lindbergh Dr, Tyler, TX 75703, USA",32.3071807,-95.2717358
Yellow Line Southeast,817,Troup,Golden,Texico,,TRUE,,"Troup and Golden, Tyler, TX",APPROXIMATE,intersection,"Troup Hwy & Golden Rd, Tyler, TX 75701, USA",32.3139434,-95.2757074
Yellow Line Southeast,818,Old Troup,Fleishel,Firestation #7,,TRUE,,"Old Troup and Fleishel, Tyler, TX",APPROXIMATE,locality,"Tyler, TX, USA",32.3512601,-95.3010624
