line,order,stop_street,next_cross_street,landmark,shelter,sign,flag,geocoded_address,latitude,longitude,transfer_to,weekday_schedule,saturday_schedule,has_official_times,notes
Red Line North,100,Roseland,8th,Bergfield Center,TRUE,,,,32.32837,-95.29945,All Lines,"6:00,6:30,7:00,7:40,8:20,9:00,9:40,10:20,11:00,11:40,12:20,13:00,13:40,14:20,15:00,15:40,16:20,17:00,17:40,18:15,18:45,19:15,19:45",,TRUE,
Red Line North,102,Broadway,Dobbs,Hogg Middle School,,TRUE,,"S Broadway Ave & W Dobbs St, Tyler, TX 75701, USA",32.3390825,-95.3005939,,"6:01,6:30,7:01,7:40,8:21,9:00,9:41,10:20,11:01,11:40,12:21,13:00,13:41,14:20,15:01,15:40,16:21,17:00,17:41,18:15,18:46,19:15,19:45",,,
Red Line North,103,Broadway,Charnwood,Jones Hearing (Doctor Office),,TRUE,,"S Broadway Ave & E Charnwood St, Tyler, TX 75701, USA",32.3425503,-95.3005975,,"6:03,6:31,7:03,7:41,8:23,9:01,9:43,10:21,11:03,11:41,12:23,13:01,13:43,14:21,15:03,15:41,16:23,17:01,17:43,18:16,18:47,19:16,19:46",,,
Red Line North,104,Broadway,Houston,United Healthcare,,TRUE,,"S Broadway Ave & W Houston St, Tyler, TX 75702, USA",32.3437484,-95.3006179,,"6:04,6:32,7:05,7:42,8:25,9:02,9:45,10:22,11:05,11:42,12:25,13:02,13:45,14:22,15:05,15:42,16:25,17:02,17:45,18:17,18:48,19:17,19:47",,,
Red Line North,106,Broadway,Elm,Across from Library,,TRUE,,"S Broadway Ave & W Elm St, Tyler, TX 75702, USA",32.3496758,-95.3006165,,"6:06,6:33,7:06,7:43,8:26,9:03,9:46,10:23,11:06,11:43,12:26,13:03,13:46,14:23,15:06,15:43,16:26,17:03,17:46,18:18,18:49,19:18,19:48",,,
Red Line North,107,Broadway,Ferguson,Regions Bank,,TRUE,,"N Broadway Ave & W Ferguson St, Tyler, TX 75702, USA",32.3517199,-95.3006202,,"6:07,6:34,7:08,7:44,8:28,9:04,9:48,10:24,11:08,11:44,12:28,13:04,13:48,14:24,15:08,15:44,16:28,17:04,17:48,18:19,18:50,19:19,19:49",,,
Red Line North,108,Broadway,Bow,"Salvation Army, Northeast Texas Public Health District, Tyler City Municipal Courts",TRUE,TRUE,,,32.356,-95.3006,Green Line Northeast,"6:09,6:35,7:10,7:45,8:30,9:05,9:50,10:25,11:10,11:45,12:30,13:05,13:50,14:25,15:10,15:45,16:30,17:05,17:50,18:20,18:52,19:20,19:50",,TRUE,Using times for “Broadway and Gentry”
Red Line North,109,Broadway,Queen,Roberts Juvenile Building,,TRUE,,"N Broadway Ave & W Queen St, Tyler, TX 75702, USA",32.3615884,-95.3015438,,"6:09,6:35,7:10,7:45,8:30,9:05,9:50,10:25,11:10,11:45,12:30,13:05,13:50,14:25,15:10,15:45,16:30,17:05,17:50,18:20,18:52,19:20,19:50",,,
Red Line North,110,Broadway,Cedar,,,TRUE,,"N Broadway Ave & W Cedar St, Tyler, TX 75702, USA",32.3638406,-95.3015429,,"6:09,6:36,7:11,7:45,8:31,9:05,9:51,10:25,11:11,11:45,12:31,13:05,13:51,14:25,15:11,15:45,16:31,17:05,17:51,18:20,18:52,19:20,19:51",,,
Red Line North,111,Broadway,Franklin,,,TRUE,,"N Broadway Ave & W Franklin St, Tyler, TX 75702, USA",32.3663907,-95.3015265,,"6:10,6:36,7:11,7:46,8:31,9:06,9:51,10:26,11:11,11:46,12:31,13:06,13:51,14:26,15:11,15:46,16:31,17:06,17:51,18:21,18:52,19:21,19:51",,,
Red Line North,112,Broadway,MLK,Iglesia Church,,TRUE,,"N Broadway Ave & W Martin Luther King Jr Blvd, Tyler, TX 75702, USA",32.3701775,-95.3018846,Green Line Northeast,"6:10,6:37,7:12,7:46,8:32,9:06,9:52,10:26,11:12,11:46,12:32,13:06,13:52,14:26,15:12,15:46,16:32,17:06,17:52,18:21,18:53,19:21,19:52",,,
Red Line North,113,Broadway,Barrett,Christian Teaching,,TRUE,,"N Broadway Ave & W Barrett St, Tyler, TX 75702, USA",32.3710892,-95.3018776,,"6:11,6:37,7:12,7:46,8:32,9:06,9:52,10:26,11:12,11:46,12:32,13:06,13:52,14:26,15:12,15:46,16:32,17:06,17:52,18:21,18:53,19:21,19:52",,,
Red Line North,114,Broadway,28th,Liberty Arms Apartments,TRUE,TRUE,,,32.3754,-95.3018,,"6:11,6:38,7:13,7:47,8:33,9:07,9:53,10:27,11:13,11:47,12:33,13:07,13:53,14:27,15:13,15:47,16:33,17:07,17:53,18:22,18:53,19:22,19:53",,,
Red Line North,115,32nd,,Boys and Girls / Glass Center,TRUE,TRUE,,,32.38066,-95.3056,,"6:11,6:38,7:13,7:47,8:33,9:07,9:53,10:27,11:13,11:47,12:33,13:07,13:53,14:27,15:13,15:47,16:33,17:07,17:53,18:22,18:53,19:22,19:53",,,
Red Line North,116,32nd,Glass Ave,Woldert Park,,TRUE,,,32.38064,-95.3076,,"6:12,6:39,7:14,7:47,8:34,9:07,9:54,10:27,11:14,11:47,12:34,13:07,13:54,14:27,15:14,15:47,16:34,17:07,17:54,18:22,18:54,19:22,19:54",,,
Red Line North,117,32nd,Grande Ave,Before intersection,,TRUE,,"N Grand Ave & 32nd St, Tyler, TX 75702, USA",32.3806581,-95.3108828,,"6:12,6:39,7:14,7:48,8:34,9:08,9:54,10:28,11:14,11:48,12:34,13:08,13:54,14:28,15:14,15:48,16:34,17:08,17:54,18:23,18:54,19:23,19:54",,,
Red Line North,118,Grand,31st,,,TRUE,,"N Grand Ave & 31st St, Tyler, TX 75702, USA",32.3796333,-95.3108722,,"6:13,6:40,7:15,7:48,8:35,9:08,9:55,10:28,11:15,11:48,12:35,13:08,13:55,14:28,15:15,15:48,16:35,17:08,17:55,18:23,18:54,19:23,19:55",,,
Red Line North,119,Grand,30th,,,TRUE,,"N Grand Ave & 30th St, Tyler, TX 75702, USA",32.3785565,-95.3108744,,"6:13,6:40,7:15,7:48,8:35,9:08,9:55,10:28,11:15,11:48,12:35,13:08,13:55,14:28,15:15,15:48,16:35,17:08,17:55,18:23,18:54,19:23,19:55",,,
Red Line North,120,Grand,,Grand Manor,,TRUE,,,32.37671,-95.3109,,"6:13,6:41,7:16,7:49,8:36,9:09,9:56,10:29,11:16,11:49,12:36,13:09,13:56,14:29,15:16,15:49,16:36,17:09,17:56,18:24,18:55,19:24,19:56",,,
Red Line North,121,Grand,,Texas College,TRUE,TRUE,,,32.37508,-95.3109,,"6:14,6:41,7:16,7:49,8:36,9:09,9:56,10:29,11:16,11:49,12:36,13:09,13:56,14:29,15:16,15:49,16:36,17:09,17:56,18:24,18:55,19:24,19:56",,,
Red Line North,122,Grand,Barrett,,,TRUE,,"W Barrett St & Grand Ave, Tyler, TX 75702, USA",32.3718922,-95.310993,,"6:14,6:42,7:17,7:49,8:37,9:09,9:57,10:29,11:17,11:49,12:37,13:09,13:57,14:29,15:17,15:49,16:37,17:09,17:57,18:24,18:55,19:24,19:57",,,
Red Line North,123,MLK,Ross,,,TRUE,,"W Martin Luther King Jr Blvd & N Ross Ave, Tyler, TX 75702, USA",32.370384,-95.313424,,"6:15,6:42,7:17,7:50,8:37,9:10,9:57,10:30,11:17,11:50,12:37,13:10,13:57,14:30,15:17,15:50,16:37,17:10,17:57,18:25,18:55,19:25,19:57",,,
Red Line North,124,MLK,Englewood,,,TRUE,,"W Martin Luther King Jr Blvd & N Englewood Ave, Tyler, TX 75702, USA",32.3703611,-95.31572,,"6:15,6:43,7:18,7:50,8:38,9:10,9:58,10:30,11:18,11:50,12:38,13:10,13:58,14:30,15:18,15:50,16:38,17:10,17:58,18:25,18:56,19:25,19:58",,,
Red Line North,125,MLK,Hill,,,TRUE,,"W Martin Luther King Jr Blvd & N Hill Ave, Tyler, TX 75702, USA",32.3703262,-95.3174758,,"6:15,6:43,7:18,7:50,8:38,9:10,9:58,10:30,11:18,11:50,12:38,13:10,13:58,14:30,15:18,15:50,16:38,17:10,17:58,18:25,18:56,19:25,19:58",,,
Red Line North,126,Glenwood,Nancy,,,TRUE,,"N Glenwood Blvd & Nancy Dr, Tyler, TX 75702, USA",32.3691577,-95.3189973,,"6:16,6:44,7:19,7:51,8:39,9:11,9:59,10:31,11:19,11:51,12:39,13:11,13:59,14:31,15:19,15:51,16:39,17:11,17:59,18:26,18:56,19:26,19:59",,,
Red Line North,127,Glenwood,Harmony,Dr. Pepper Company,,TRUE,,,32.366,-95.319,,"6:16,6:44,7:19,7:51,8:39,9:11,9:59,10:31,11:19,11:51,12:39,13:11,13:59,14:31,15:19,15:51,16:39,17:11,17:59,18:26,18:56,19:26,19:59",,,
Red Line North,128,Glenwood,Gentry,Hickory Fare Bar-B-Que,,,TRUE,"W Gentry Pkwy & N Glenwood Blvd, Tyler, TX 75702, USA",32.362212,-95.3189802,Blue Line Northwest,"6:17,6:45,7:20,7:52,8:40,9:12,10:00,10:32,11:20,11:52,12:40,13:12,14:00,14:32,15:20,15:52,16:40,17:12,18:00,18:27,18:57,19:27,20:00",,TRUE,
Red Line North,129,Gentry,Meadow,Labor Ready,,TRUE,,"W Gentry Pkwy & Meadow Ln, Tyler, TX 75702, USA",32.3610194,-95.3169634,,"6:17,6:45,7:20,7:53,8:40,9:13,10:00,10:33,11:20,11:53,12:40,13:13,14:00,14:33,15:20,15:53,16:40,17:13,18:00,18:27,18:57,19:27,20:00",,,
Red Line North,130,Gentry,Bow and Ross,Exxon,,TRUE,,,32.35951,-95.31407,,"6:17,6:45,7:21,7:54,8:41,9:14,10:01,10:34,11:21,11:54,12:41,13:14,14:01,14:34,15:21,15:54,16:41,17:14,18:01,18:28,18:58,19:28,20:01",,,
Red Line North,131,Gentry,Palace,Neighborhood Services,TRUE,TRUE,,"W Gentry Pkwy & N Palace Ave, Tyler, TX 75702, USA",32.3596003,-95.310238,,"6:18,6:46,7:22,7:55,8:42,9:15,10:02,10:35,11:22,11:55,12:42,13:15,14:02,14:35,15:22,15:55,16:42,17:15,18:02,18:29,18:59,19:29,20:02",,,
Red Line North,132,Gentry,Harris,Building Blocks Day Care,,TRUE,,"W Gentry Pkwy & N Harris Ave, Tyler, TX 75702, USA",32.3596162,-95.3075468,,"6:18,6:46,7:22,7:56,8:42,9:16,10:02,10:36,11:22,11:56,12:42,13:16,14:02,14:36,15:22,15:56,16:42,17:16,18:02,18:29,18:59,19:30,20:02",,,
Red Line North,133,Gentry,Bois D'Arc,Bumper to Bumper Auto Pars,,TRUE,,,32.35955,-95.30282,,"6:19,6:47,7:23,7:57,8:43,9:17,10:03,10:37,11:23,11:57,12:43,13:17,14:03,14:37,15:23,15:57,16:43,17:17,18:03,18:30,19:00,19:31,20:03",,,
Red Line North,134,Broadway,Bow,Catholic Church,,TRUE,,"N Broadway Ave & E Bow St, Tyler, TX 75702, USA",32.3582207,-95.3007293,,"6:19,6:47,7:24,7:58,8:44,9:18,10:04,10:38,11:24,11:58,12:44,13:18,14:04,14:38,15:24,15:58,16:44,17:18,18:04,18:31,19:01,19:32,20:04",,,
Red Line North,135,Broadway,Ferguson,KLTV,TRUE,TRUE,,"N Broadway Ave & W Ferguson St, Tyler, TX 75702, USA",32.3517199,-95.3006202,,"6:19,6:47,7:24,7:59,8:44,9:19,10:04,10:39,11:24,11:59,12:44,13:19,14:04,14:39,15:24,15:59,16:44,17:19,18:04,18:31,19:01,19:32,20:04",,,
Red Line North,136,Broadway,Elm,Expert Tire,,TRUE,,"S Broadway Ave & W Elm St, Tyler, TX 75702, USA",32.3496758,-95.3006165,,"6:20,6:48,7:25,8:00,8:45,9:20,10:05,10:40,11:25,12:00,12:45,13:20,14:05,14:40,15:25,16:00,16:45,17:20,18:05,18:32,19:02,19:33,20:05",,,
Red Line North,137,Broadway,Front,Catholic Church,TRUE,TRUE,,"S Broadway Ave & W Front St, Tyler, TX 75702, USA",32.3466213,-95.3005977,,"6:20,6:48,7:26,8:01,8:46,9:21,10:06,10:41,11:26,12:01,12:46,13:21,14:06,14:41,15:26,16:01,16:46,17:21,18:06,18:33,19:03,19:34,20:06",,,
Red Line North,138,Houston,Spring,Birdsong and Armstrong,,TRUE,,"E Houston St & S Spring Ave, Tyler, TX 75702, USA",32.343741,-95.299551,,"6:21,6:49,7:26,8:02,8:46,9:22,10:06,10:42,11:26,12:02,12:46,13:22,14:06,14:42,15:26,16:02,16:46,17:22,18:06,18:33,19:03,19:35,20:06",,,
Red Line North,139,Houston,Niblack,The Citadel Apartment,,TRUE,,,32.34373,-95.29623,,"6:21,6:49,7:27,8:03,8:47,9:23,10:07,10:43,11:27,12:03,12:47,13:23,14:07,14:43,15:27,16:03,16:47,17:23,18:07,18:34,19:04,19:36,20:07",,,
Red Line North,140,Beckham,Houston,Subway across from TMF,,TRUE,,"S Beckham Ave & E Houston St, Tyler, TX 75702, USA",32.3435747,-95.2931815,,"6:22,6:50,7:28,8:05,8:48,9:25,10:08,10:45,11:28,12:05,12:48,13:25,14:08,14:45,15:28,16:05,16:48,17:25,18:08,18:35,19:05,19:37,20:08",,TRUE,
Red Line North,141,Beckham,Hospital Dr,Olympic Plaza,TRUE,TRUE,,"S Beckham Ave & Hospital Dr, Tyler, TX 75701, USA",32.337457,-95.2917058,,"6:24,6:53,7:30,8:08,8:50,9:28,10:10,10:48,11:30,12:08,12:50,13:28,14:10,14:48,15:30,16:08,16:50,17:27,18:09,18:36,19:07,19:39,20:10",,,
Red Line North,142,Beckham,5th,Car Loan Place,,TRUE,,"E 5th St & S Beckham Ave, Tyler, TX 75701, USA",32.3315885,-95.2904588,,"6:26,6:56,7:32,8:11,8:52,9:31,10:12,10:51,11:32,12:11,12:52,13:31,14:12,14:51,15:32,16:11,16:52,17:30,18:10,18:37,19:10,19:41,20:12",,,
Red Line North,END,Roseland,8th,Bergfield Center,TRUE,,,,32.32837,-95.29945,All Lines,"6:28,7:00,7:35,8:15,8:55,9:35,10:15,10:55,11:35,12:15,12:55,13:35,14:15,14:55,15:35,16:15,16:55,17:33,18:12,18:38,19:13,19:43,20:14",,TRUE,
Red Line South,200,Roseland,8th,Bergfield Center,TRUE,,,,32.32837,-95.29945,All Lines,"6:00,6:30,7:00,7:40,8:20,9:00,9:40,10:20,11:00,11:40,12:20,13:00,13:40,14:20,15:00,15:40,16:20,17:00,17:40,18:15,18:45,19:15,19:45",,TRUE,
Red Line South,201,Broadway,Old Troup Hwy,Off Broadway Shopping Center,,TRUE,,,32.33203,-95.29054,,"6:01,6:30,7:01,7:40,8:21,9:00,9:41,10:20,11:01,11:40,12:21,13:00,13:41,14:20,15:01,15:40,16:21,17:00,17:41,18:15,18:46,19:15,19:45",,,
Red Line South,202,Broadway,Wilma,Azalea Post Office,TRUE,TRUE,,"S Broadway Ave & Wilma St, Tyler, TX 75701, USA",32.3206148,-95.3006314,,"6:02,6:31,7:02,7:41,8:22,9:01,9:42,10:21,11:02,11:41,12:22,13:01,13:42,14:21,15:02,15:41,16:22,17:01,17:42,18:16,18:47,19:16,19:46",,,
Red Line South,203,Broadway,Fair Lane,Before intersection,,TRUE,,"S Broadway Ave & Fair Ln, Tyler, TX 75701, USA",32.3162756,-95.3006909,,"6:03,6:32,7:04,7:42,8:24,9:02,9:44,10:22,11:04,11:42,12:24,13:02,13:44,14:22,15:04,15:42,16:24,17:02,17:44,18:17,18:48,19:17,19:47",,,
Red Line South,204,Broadway,Amherst,Barclay Apartments,,TRUE,,"S Broadway Ave & E Amherst St, Tyler, TX 75701, USA",32.3118095,-95.3006721,,"6:05,6:32,7:05,7:42,8:25,9:02,9:45,10:22,11:05,11:42,12:25,13:02,13:45,14:22,15:05,15:42,16:25,17:02,17:45,18:17,18:49,19:17,19:47",,,
Red Line South,205,Broadway,Winchester,Department of Human Resources,TRUE,TRUE,,"S Broadway Ave & Winchester Dr, Tyler, TX 75701, USA",32.309232,-95.3006536,,"6:06,6:33,7:07,7:43,8:27,9:03,9:47,10:23,11:07,11:43,12:27,13:03,13:47,14:23,15:07,15:43,16:27,17:03,17:47,18:18,18:50,19:18,19:48",,,
Red Line South,206,Broadway,Shelly,Burger King,TRUE,TRUE,,"S Broadway Ave & Shelley Dr, Tyler, TX 75701, USA",32.304456,-95.300672,,"6:07,6:34,7:08,7:44,8:28,9:04,9:48,10:24,11:08,11:44,12:28,13:04,13:48,14:24,15:08,15:44,16:28,17:04,17:48,18:19,18:51,19:19,19:49",,,
Red Line South,207,Broadway,Loop 323,On the Border,,TRUE,,"S Broadway Ave & W Southwest Loop 323, Tyler, TX 75701, USA",32.3029015,-95.3007536,,"6:09,6:35,7:10,7:45,8:30,9:05,9:50,10:25,11:10,11:45,12:30,13:05,13:50,14:25,15:10,15:45,16:30,17:05,17:50,18:20,18:52,19:20,19:50",,TRUE,
Red Line South,208,Broadway,Shiloh,Broadway Mall / Sears,TRUE,TRUE,,"S Broadway Ave & Rice Rd & Shiloh Rd, Tyler, TX 75703, USA",32.2948751,-95.3015578,,"6:09,6:35,7:10,7:45,8:30,9:05,9:50,10:25,11:10,11:45,12:30,13:05,13:50,14:25,15:10,15:45,16:30,17:05,17:50,18:20,18:52,19:20,19:50",,,
Red Line South,209,Broadway,After Shiloh,Times Square Shopping Center,TRUE,TRUE,,,32.29201,-95.3023,,"6:10,6:36,7:11,7:46,8:31,9:06,9:51,10:26,11:11,11:46,12:31,13:06,13:51,14:26,15:11,15:46,16:31,17:06,17:51,18:21,18:52,19:21,19:51",,,
Red Line South,210,Broadway,Rieck,Sonic,,TRUE,,"S Broadway Ave & W Rieck Rd, Tyler, TX 75703, USA",32.2894749,-95.3032573,,"6:10,6:37,7:12,7:46,8:32,9:06,9:52,10:26,11:12,11:46,12:32,13:06,13:52,14:26,15:12,15:46,16:32,17:06,17:52,18:21,18:53,19:21,19:52",,,
Red Line South,211,Broadway,Chimney Rock,Audio Video Center,,TRUE,,"S Broadway Ave & Chimney Rock Dr, Tyler, TX 75703, USA",32.2848229,-95.3045973,,"6:11,6:38,7:13,7:47,8:33,9:07,9:53,10:27,11:13,11:47,12:33,13:07,13:53,14:27,15:13,15:47,16:33,17:07,17:53,18:22,18:53,19:22,19:53",,,
Red Line South,212,Broadway,Grande,Bank of America,,TRUE,,"S Broadway Ave & W Grande Blvd, Tyler, TX 75703, USA",32.2798967,-95.3058148,,"6:12,6:38,7:13,7:47,8:33,9:07,9:53,10:27,11:13,11:47,12:33,13:07,13:53,14:27,15:13,15:47,16:33,17:07,17:53,18:22,18:53,19:22,19:53",,,
Red Line South,213,Broadway,,Little Red School House,,TRUE,,,32.27759,-95.3065,,"6:12,6:39,7:14,7:48,8:34,9:08,9:54,10:28,11:14,11:48,12:34,13:08,13:54,14:28,15:14,15:48,16:34,17:08,17:54,18:23,18:54,19:23,19:54",,,
Red Line South,214,Broadway,,Cheddars,,TRUE,,,32.27643,-95.3066,,"6:13,6:40,7:15,7:48,8:35,9:08,9:55,10:28,11:15,11:48,12:35,13:08,13:55,14:28,15:15,15:48,16:35,17:08,17:55,18:23,18:54,19:23,19:55",,,
Red Line South,215,South Town,Broadway,Walmart / Target,TRUE,TRUE,,"S Broadway Ave & E South Town Dr, Tyler, TX 75703, USA",32.2740697,-95.3067964,,"6:13,6:41,7:16,7:49,8:36,9:09,9:56,10:29,11:16,11:49,12:36,13:09,13:56,14:29,15:16,15:49,16:36,17:09,17:56,18:24,18:55,19:24,19:56",,,
Red Line South,216,Thigpen,,Carretas / Braums,,TRUE,,,32.27235,-95.3077,,"6:14,6:41,7:16,7:49,8:36,9:09,9:56,10:29,11:16,11:49,12:36,13:09,13:56,14:29,15:16,15:49,16:36,17:09,17:56,18:24,18:55,19:24,19:56",,,
Red Line South,217,Thigpen,Gatewood,Brookhollow Apartments,,,TRUE,"Thigpen Rd & Gatewood Dr, Tyler, TX 75703, USA",32.2723578,-95.307957,,"6:15,6:42,7:17,7:50,8:37,9:10,9:57,10:30,11:17,11:50,12:37,13:10,13:57,14:30,15:17,15:50,16:37,17:10,17:57,18:25,18:55,19:25,19:57",,,
Red Line South,218,Waljim,,Brookside Village,,TRUE,,,32.2711,-95.31175,,"6:15,6:43,7:18,7:50,8:38,9:10,9:58,10:30,11:18,11:50,12:38,13:10,13:58,14:30,15:18,15:50,16:38,17:10,17:58,18:25,18:56,19:25,19:58",,,
Red Line South,219,Muller Garden,,Harborwood Apartments,,TRUE,,,32.26879,-95.307,,"6:16,6:44,7:19,7:51,8:39,9:11,9:59,10:31,11:19,11:51,12:39,13:11,13:59,14:31,15:19,15:51,16:39,17:11,17:59,18:26,18:56,19:26,19:59",,,
Red Line South,220,Broadway,Heritage,Carmike Theater,,TRUE,,,32.26864,-95.3072,,"6:17,6:45,7:20,7:52,8:40,9:12,10:00,10:32,11:20,11:52,12:40,13:12,14:00,14:32,15:20,15:52,16:40,17:12,18:00,18:27,18:57,19:27,20:00",,TRUE,
Red Line South,221,Heritage,,Capital One Bank,,TRUE,,,32.26652,-95.3082,,"6:18,6:46,7:21,7:54,8:41,9:14,10:01,10:34,11:21,11:54,12:41,13:14,14:01,14:34,15:21,15:54,16:41,17:14,18:01,18:28,18:58,19:29,20:01",,,
Red Line South,222,Broadway,,Don's Appliances / Piano Store,,TRUE,,,32.27589,-95.30654,,"6:19,6:47,7:23,7:57,8:43,9:17,10:03,10:37,11:23,11:57,12:43,13:17,14:03,14:37,15:23,15:57,16:43,17:17,18:03,18:30,19:00,19:31,20:03",,,
Red Line South,223,Broadway,Grande,East Texas Medical Center,,TRUE,,"S Broadway Ave & W Grande Blvd, Tyler, TX 75703, USA",32.2798967,-95.3058148,,"6:20,6:48,7:24,7:59,8:44,9:19,10:04,10:39,11:24,11:59,12:44,13:19,14:04,14:39,15:24,15:59,16:44,17:19,18:04,18:31,19:01,19:33,20:04",,,
Red Line South,224,Broadway,Rieck,Ryan's Steak House,TRUE,TRUE,,"S Broadway Ave & W Rieck Rd, Tyler, TX 75703, USA",32.2894749,-95.3032573,,"6:21,6:49,7:26,8:02,8:46,9:22,10:06,10:42,11:26,12:02,12:46,13:22,14:06,14:42,15:26,16:02,16:46,17:22,18:06,18:33,19:03,19:35,20:06",,,
Red Line South,225,Broadway,Shiloh,CVS / Barnes and Nobles,,TRUE,,"S Broadway Ave & Rice Rd & Shiloh Rd, Tyler, TX 75703, USA",32.2948751,-95.3015578,,"6:22,6:50,7:28,8:05,8:48,9:25,10:08,10:45,11:28,12:05,12:48,13:25,14:08,14:45,15:28,16:05,16:48,17:25,18:08,18:35,19:05,19:37,20:08",,TRUE,
Red Line South,226,Broadway,Independence,Chase Bank,,TRUE,,"S Broadway Ave & Independence Pl, Tyler, TX 75703, USA",32.2988195,-95.3006235,,"6:23,6:51,7:29,8:06,8:49,9:26,10:09,10:46,11:29,12:06,12:49,13:26,14:09,14:46,15:29,16:06,16:49,17:26,18:08,18:35,19:06,19:38,20:09",,,
Red Line South,227,Broadway,Winchester,McDonald's,,TRUE,,"S Broadway Ave & Winchester Dr, Tyler, TX 75701, USA",32.309232,-95.3006536,,"6:24,6:53,7:30,8:08,8:50,9:28,10:10,10:48,11:30,12:08,12:50,13:28,14:10,14:48,15:30,16:08,16:50,17:27,18:09,18:36,19:07,19:39,20:10",,,
Red Line South,228,Broadway,Amherst,Taco Bell,,TRUE,,"S Broadway Ave & E Amherst St, Tyler, TX 75701, USA",32.3118095,-95.3006721,,"6:25,6:55,7:31,8:10,8:51,9:30,10:11,10:50,11:31,12:10,12:51,13:30,14:11,14:50,15:31,16:10,16:51,17:29,18:10,18:36,19:09,19:40,20:11",,,
Red Line South,229,Broadway,Amherst,Pep Boys,TRUE,TRUE,,"S Broadway Ave & E Amherst St, Tyler, TX 75701, USA",32.3118095,-95.3006721,,"6:26,6:56,7:32,8:11,8:52,9:31,10:12,10:51,11:32,12:11,12:52,13:31,14:12,14:51,15:32,16:11,16:52,17:30,18:10,18:37,19:10,19:41,20:12",,,
Red Line South,230,Broadway,Wilma,Timbers Apartments,,TRUE,,"S Broadway Ave & Wilma St, Tyler, TX 75701, USA",32.3206148,-95.3006314,,"6:27,6:58,7:33,8:13,8:53,9:33,10:13,10:53,11:33,12:13,12:53,13:33,14:13,14:53,15:33,16:13,16:53,17:31,18:11,18:37,19:11,19:42,20:13",,,
Red Line South,END,Roseland,8th,Bergfield Center,TRUE,,,,32.32837,-95.29945,All Lines,"6:28,7:00,7:35,8:15,8:55,9:35,10:15,10:55,11:35,12:15,12:55,13:35,14:15,14:55,15:35,16:15,16:55,17:33,18:12,18:38,19:13,19:43,20:14",,TRUE,
Blue Line Northwest,300,Roseland,8th,Bergfield Center,TRUE,,,,32.32837,-95.29945,All Lines,"6:00,7:00,8:20,9:40,11:00,12:20,13:40,15:00,16:20,17:40,18:45,19:40",,TRUE,
Blue Line Northwest,301,4th,College,Bergfield Park,,TRUE,,"W 4th St & S College Ave, Tyler, TX 75701, USA",32.3320257,-95.3026649,,"6:00,7:01,8:21,9:41,11:01,12:21,13:41,15:01,16:21,17:41,18:45,19:40",,,
Blue Line Northwest,302,Glenwood,Kennedy,Plyler School,,TRUE,,"W Glenwood Blvd & Kennedy Ave, Tyler, TX 75701, USA",32.3315743,-95.3084654,,"6:01,7:02,8:22,9:42,11:02,12:22,13:42,15:02,16:22,17:42,18:46,19:41",,,
Blue Line Northwest,303,Glenwood,Vine,Fire Station,,TRUE,,"S Glenwood Blvd & S Vine Ave, Tyler, TX 75701, USA",32.332235,-95.3112529,,"6:02,7:03,8:23,9:43,11:03,12:23,13:43,15:03,16:23,17:43,18:47,19:42",,,
Blue Line Northwest,304,Glenwood,Lindsey,Water Tower,,TRUE,,"S Glenwood Blvd & Lindsey Ln, Tyler, TX 75701, USA",32.3378793,-95.3128857,,"6:03,7:04,8:24,9:44,11:04,12:24,13:44,15:04,16:24,17:44,18:47,19:43",,,
Blue Line Northwest,305,Glenwood,Houston,Tire Barn,,TRUE,,"S Glenwood Blvd & W Houston St, Tyler, TX 75702, USA",32.3437341,-95.3124071,,"6:04,7:05,8:25,9:45,11:05,12:25,13:45,15:05,16:25,17:45,18:48,19:44",,,
Blue Line Northwest,306,Glenwood,Front,ETMC Offices,,,TRUE,"W Front St & S Glenwood Blvd, Tyler, TX 75702, USA",32.3466248,-95.3157294,,"6:05,7:06,8:26,9:46,11:06,12:26,13:46,15:06,16:26,17:46,18:49,19:45",,TRUE,Using times for “Glenwood and Erwin”
Blue Line Northwest,307,Glenwood,Loller,Toni Smith Auto,,TRUE,,"N Glenwood Blvd & W Lollar St, Tyler, TX 75702, USA",32.3543677,-95.3192131,,"6:05,7:06,8:26,9:46,11:06,12:26,13:46,15:06,16:26,17:46,18:49,19:45",,,
Blue Line Northwest,308,Glenwood,Forest,Fun Forrest,,TRUE,,"N Glenwood Blvd & Forest Ave, Tyler, TX 75702, USA",32.3615431,-95.3189978,,"6:06,7:07,8:27,9:47,11:07,12:27,13:47,15:07,16:27,17:47,18:50,19:46",,,
Blue Line Northwest,309,Gentry,Glenwood,Hickory Fare Bar-B-Que,TRUE,TRUE,,"W Gentry Pkwy & N Glenwood Blvd, Tyler, TX 75702, USA",32.362212,-95.3189802,Red Line North,"6:07,7:08,8:28,9:48,11:08,12:28,13:48,15:08,16:28,17:48,18:50,19:47",,,
Blue Line Northwest,310,Gentry,Parkdale Drive,Ace Check Cashing,,TRUE,,"W Gentry Pkwy & N Parkdale Dr, Tyler, TX 75702, USA",32.3654033,-95.3235981,,"6:07,7:09,8:29,9:49,11:09,12:29,13:49,15:09,16:29,17:49,18:51,19:47",,,
Blue Line Northwest,311,Gentry,MLK,Zoo,,TRUE,,"W Gentry Pkwy & W Martin Luther King Jr Blvd, Tyler, TX 75702, USA",32.3674433,-95.3269754,,"6:08,7:10,8:30,9:50,11:10,12:30,13:50,15:10,16:30,17:50,18:52,19:48",,,
Blue Line Northwest,312,Gentry,Glenwood,Taco Bell,,TRUE,,"Rte 110 & Van Hwy & W Gentry Pkwy, Tyler, TX 75702, USA",32.3696847,-95.3311067,,"6:09,7:11,8:31,9:51,11:11,12:31,13:51,15:11,16:31,17:50,18:52,19:49",,,
Blue Line Northwest,313,Gentry,Baldwin,Tyler Day Nursery,,TRUE,,"W Gentry Pkwy & Baldwin Dr, Tyler, TX 75702, USA",32.371004,-95.3321318,,"6:09,7:12,8:32,9:52,11:12,12:32,13:52,15:12,16:32,17:51,18:53,19:49",,,
Blue Line Northwest,314,Gentry,Jordan,McDonald's,TRUE,TRUE,,"W Gentry Pkwy & Jordan St, Tyler, TX 75702, USA",32.376318,-95.3320126,,"6:10,7:13,8:33,9:53,11:13,12:33,13:53,15:13,16:33,17:52,18:53,19:50",,,
Blue Line Northwest,315,Gentry,,Across from Motel 6,,TRUE,,,32.3791,-95.3317,,"6:11,7:14,8:34,9:54,11:14,12:34,13:54,15:14,16:34,17:53,18:54,19:51",,,
Blue Line Northwest,316,Loop 323,Gentry,Quality Inn,TRUE,TRUE,,,32.38039,-95.3338,,"6:12,7:15,8:35,9:55,11:15,12:35,13:55,15:15,16:35,17:54,18:55,19:52",,TRUE,
Blue Line Northwest,317,Loop 323,Silver Creek Drive,12 Oaks Motel,,TRUE,,"Texas 323 Loop & Silver Creek Dr, Tyler, TX 75702, USA",32.3787973,-95.3389939,,"6:13,7:16,8:35,9:56,11:16,12:35,13:56,15:16,16:35,17:55,18:56,19:53",,,
Blue Line Northwest,318,Loop 323,Cope,Car Wash,,,TRUE,"Texas 323 Loop & Cope St, Tyler, TX 75702, USA",32.3725651,-95.3433884,,"6:14,7:17,8:36,9:57,11:17,12:36,13:57,15:17,16:36,17:56,18:57,19:54",,,
Blue Line Northwest,319,Loop 323,Garden Valley,Family Dollar,,TRUE,,"Texas 323 Loop & Garden Valley Rd, Tyler, TX 75704, USA",32.3685387,-95.3433187,,"6:15,7:18,8:37,9:58,11:18,12:37,13:58,15:18,16:37,17:57,18:58,19:55",,,
Blue Line Northwest,320,Loop 323,Lion Lane,John Tyler High School,TRUE,TRUE,,"Texas 323 Loop & Lion Dr, Tyler, TX 75702, USA",32.3618164,-95.3433129,,"6:16,7:19,8:38,9:59,11:19,12:38,13:59,15:19,16:38,17:58,18:59,19:56",,,
Blue Line Northwest,321,Erwin,Loop 323,Greenbrier Nursing Home,,TRUE,,,32.35249,-95.3402,,"6:17,7:20,8:39,10:00,11:20,12:39,14:00,15:20,16:39,17:59,19:00,19:57",,,
Blue Line Northwest,322,Erwin,Willowbrook,Across from Country Club,,TRUE,,"W Erwin St & Willowbrook Ave, Tyler, TX 75702, USA",32.3515141,-95.3355383,,"6:18,7:21,8:40,10:01,11:21,12:40,14:01,15:21,16:40,18:00,19:01,19:58",,,
Blue Line Northwest,323,Erwin,,Cross Roads Apartments,,TRUE,,,,,,"6:19,7:22,8:41,10:02,11:22,12:41,14:02,15:22,16:41,18:01,19:02,19:59",,,
Blue Line Northwest,324,Erwin,Lyons,Across from Save-a-lot,,TRUE,,"W Erwin St & S Lyons Ave, Tyler, TX 75702, USA",32.3501977,-95.3262635,,"6:20,7:23,8:42,10:03,11:23,12:42,14:03,15:23,16:42,18:02,19:03,20:00",,TRUE,
Blue Line Northwest,325,Lyons,Front,Andrews Center,,TRUE,,"W Front St & S Lyons Ave, Tyler, TX 75702, USA",32.3465365,-95.3261963,,"6:20,7:24,8:43,10:04,11:24,12:43,14:04,15:24,16:43,18:02,19:04,20:01",,,
Blue Line Northwest,326,Front,,Rose Garden / Harvey Convention Center,TRUE,TRUE,,,32.34653,-95.3235,,"6:21,7:25,8:44,10:05,11:25,12:44,14:05,15:25,16:44,18:03,19:05,20:02",,,
Blue Line Northwest,327,Front,Fenton,The Children's Place,,TRUE,,"W Front St & S Fenton Ave, Tyler, TX 75702, USA",32.346566,-95.319272,,"6:22,7:27,8:46,10:07,11:27,12:46,14:07,15:27,16:46,18:04,19:06,20:03",,,
Blue Line Northwest,328,Front,Hill,Cotton Belt Building,,TRUE,,"W Front St & S Hill Ave, Tyler, TX 75702, USA",32.3465867,-95.3180449,,"6:23,7:28,8:47,10:08,11:28,12:47,14:08,15:28,16:47,18:05,19:07,20:04",,,
Blue Line Northwest,329,Glenwood,Shaw,Water Tower,,TRUE,,"S Glenwood Blvd & Shaw St, Tyler, TX 75701, USA",32.336898,-95.3129306,,"6:24,7:29,8:49,10:09,11:29,12:49,14:09,15:29,16:49,18:06,19:08,20:05",,,
Blue Line Northwest,330,Glenwood,Kennedy,Across from Plyer School,,TRUE,,"W Glenwood Blvd & Kennedy Ave, Tyler, TX 75701, USA",32.3315743,-95.3084654,,"6:25,7:31,8:50,10:11,11:31,12:50,14:11,15:31,16:50,18:07,19:09,20:06",,,
Blue Line Northwest,331,Glenwood,Robertson,Before intersection,,TRUE,,"W Glenwood Blvd & S Robertson Ave, Tyler, TX 75701, USA",32.3310594,-95.3065307,,"6:26,7:32,8:52,10:12,11:32,12:52,14:12,15:32,16:52,18:08,19:10,20:07",,,
Blue Line Northwest,332,5th,Chilton,Before intersection,,TRUE,,"Chilton Ave & W 5th St, Tyler, TX 75701, USA",32.331023,-95.3047152,,"6:27,7:33,8:53,10:13,11:33,12:53,14:13,15:33,16:53,18:09,19:11,20:08",,,
Blue Line Northwest,END,Roseland,8th,Bergfield Center,TRUE,,,,32.32837,-95.29945,All Lines,"6:28,7:35,8:55,10:15,11:35,12:55,14:15,15:35,16:55,18:10,19:13,20:10",,TRUE,
Blue Line Southwest,400,Roseland,8th,Bergfield Center,TRUE,,,,32.32837,-95.29945,All Lines,"6:30,7:40,9:00,10:20,11:40,13:00,14:20,15:40,17:00,18:15,19:15",,TRUE,
Blue Line Southwest,401,4th,College,Bergfield Park,,TRUE,,"W 4th St & S College Ave, Tyler, TX 75701, USA",32.3320257,-95.3026649,,"6:31,7:41,9:01,10:21,11:41,13:01,14:21,15:41,17:01,18:16,19:16",,,
Blue Line Southwest,402,Glenwood,Kennedy,Plyler School,,TRUE,,"W Glenwood Blvd & Kennedy Ave, Tyler, TX 75701, USA",32.3315743,-95.3084654,,"6:33,7:43,9:03,10:23,11:43,13:03,14:23,15:43,17:03,18:18,19:18",,,
Blue Line Southwest,403,Vine,5th,Donut Shop,,TRUE,,"S Vine Ave & W 5th St, Tyler, TX 75701, USA",32.3306497,-95.3119401,,"6:34,7:45,9:05,10:25,11:45,13:05,14:25,15:45,17:05,18:19,19:19",,,
Blue Line Southwest,404,Frankston,Mosley,,,TRUE,,"Frankston Hwy & Mosely St, Tyler, TX 75701, USA",32.3242453,-95.3181575,,"6:36,7:47,9:07,10:27,11:47,13:07,14:27,15:47,17:07,18:21,19:21",,,
Blue Line Southwest,405,Frankston,Walton,Fire Station,TRUE,TRUE,,"Frankston Hwy & Walton Rd, Tyler, TX 75701, USA",32.3193637,-95.3239834,,"6:38,7:49,9:09,10:29,11:49,13:09,14:29,15:49,17:09,18:23,19:23",,TRUE,
Blue Line Southwest,406,Walton,Monroe,,,TRUE,,"Walton Rd & Monroe Ave, Tyler, TX 75701, USA",32.319398,-95.3252564,,"6:38,7:49,9:09,10:29,11:49,13:09,14:29,15:49,17:09,18:23,19:23",,,
Blue Line Southwest,407,Walton,Rhinehart,Smith Temple Church,,TRUE,,"Walton Rd & Rhinehart St, Tyler, TX 75701, USA",32.3193595,-95.3290573,,"6:39,7:50,9:10,10:30,11:50,13:10,14:30,15:50,17:10,18:24,19:24",,,
Blue Line Southwest,408,Walton,Deprest,Across from St. Louis School,,TRUE,,"Walton Rd & Depriest Ave, Tyler, TX 75701, USA",32.319333,-95.3316916,,"6:39,7:51,9:11,10:31,11:51,13:11,14:31,15:51,17:11,18:24,19:24",,,
Blue Line Southwest,409,Walton,Jersey,At intersection,,TRUE,,"Walton Rd & Jersey St, Tyler, TX 75701, USA",32.319314,-95.3369189,,"6:40,7:52,9:12,10:32,11:52,13:12,14:32,15:52,17:12,18:25,19:25",,,
Blue Line Southwest,410,Walton,Loop 323,Southwest Pines Apartments,TRUE,TRUE,,"W Southwest Loop 323 & Walton Rd, Tyler, TX, USA",32.319296,-95.342323,,"6:40,7:52,9:12,10:32,11:52,13:12,14:32,15:52,17:12,18:25,19:25",,,
Blue Line Southwest,411,Robertson,Loop 323,RTDC School,TRUE,TRUE,,"W Southwest Loop 323 & Robertson Rd, Tyler, TX 75701, USA",32.3329202,-95.3404694,,"6:41,7:53,9:13,10:33,11:53,13:13,14:33,15:53,17:13,18:26,19:26",,,
Blue Line Southwest,412,Robertson,Bennet,Andrews Center,,TRUE,,"Robertson Rd & Bennett Ave, Tyler, TX 75701, USA",32.3329453,-95.3366865,,"6:41,7:54,9:14,10:34,11:54,13:14,14:34,15:54,17:14,18:26,19:26",,,
Blue Line Southwest,413,Shaw,Loop 323 WSW,Hollywood Theater,,TRUE,,,32.33632,-95.3386,,"6:42,7:55,9:15,10:35,11:55,13:15,14:35,15:55,17:15,18:27,19:27",,,
Blue Line Southwest,414,Front,Loop 323,Westwood Shopping Center,TRUE,TRUE,,,,,,"6:43,7:56,9:16,10:36,11:56,13:16,14:36,15:56,17:16,18:28,19:28",,TRUE,
Blue Line Southwest,415,Front,Southgate,,,,TRUE,"W Front St & Southgate Ave, Tyler, TX 75702, USA",32.3465089,-95.3332157,,"6:43,7:57,9:17,10:37,11:57,13:17,14:37,15:57,17:17,18:28,19:28",,,
Blue Line Southwest,416,Front,Lyons,Andrews Center,TRUE,TRUE,,"W Front St & S Lyons Ave, Tyler, TX 75702, USA",32.3465365,-95.3261963,,"6:44,7:58,9:18,10:38,11:58,13:18,14:38,15:58,17:18,18:29,19:29",,,
Blue Line Southwest,417,Bellwood,Lyons,,,TRUE,,"Bellwood Rd & S Lyons Ave, Tyler, TX 75701, USA",32.340493,-95.3262018,,"6:45,7:59,9:19,10:39,11:59,13:19,14:39,15:59,17:19,18:30,19:30",,,
Blue Line Southwest,418,Bellwood,,Parkview Apartments,TRUE,TRUE,,,,,,"6:46,8:00,9:20,10:40,12:00,13:20,14:40,16:00,17:20,18:31,19:31",,,
Blue Line Southwest,419,Bellwood,Peach,Pete School,,TRUE,,"Bellwood Rd & Peach Ave, Tyler, TX 75701, USA",32.3419452,-95.32011,,"6:47,8:01,9:21,10:41,12:01,13:21,14:41,16:01,17:21,18:32,19:32",,,
Blue Line Southwest,420,Houston,Confederate,,,TRUE,,"W Houston St & S Confederate Ave, Tyler, TX 75701, USA",32.3437156,-95.3147207,,"6:48,8:02,9:22,10:42,12:02,13:22,14:42,16:02,17:22,18:33,19:33",,TRUE,Using times for “Bellwood and Houston”
Blue Line Southwest,421,Houston,Palace,Across from Fina Station,,TRUE,,"W Houston St & S Palace Ave, Tyler, TX 75701, USA",32.3437058,-95.3102064,,"6:48,8:03,9:23,10:43,12:03,13:23,14:43,16:03,17:23,18:33,19:33",,,
Blue Line Southwest,422,Vine,Rusk,Big Blue House,,TRUE,,"S Vine Ave & Rusk St, Tyler, TX 75701, USA",32.3413309,-95.3086858,,"6:49,8:05,9:25,10:45,12:05,13:25,14:45,16:05,17:25,18:34,19:34",,,
Blue Line Southwest,423,Vine,Lindsey,Gonzales Grocery,,TRUE,,"S Vine Ave & Lindsey Ln, Tyler, TX 75701, USA",32.3379366,-95.3085795,,"6:50,8:06,9:26,10:46,12:06,13:26,14:46,16:06,17:26,18:34,19:34",,,
Blue Line Southwest,424,Vine,Mockingbird,Pt Cole Park,,TRUE,,"S Vine Ave & Mockingbird Ln, Tyler, TX 75701, USA",32.3359845,-95.3091988,,"6:51,8:08,9:28,10:48,12:08,13:28,14:48,16:08,17:28,18:35,19:35",,,
Blue Line Southwest,425,Glenwood,Kennedy,Plyler School,,TRUE,,"W Glenwood Blvd & Kennedy Ave, Tyler, TX 75701, USA",32.3315743,-95.3084654,,"6:52,8:10,9:30,10:50,12:10,13:30,14:50,16:10,17:30,18:36,19:36",,,
Blue Line Southwest,426,5th,Robertson,Before intersection,,TRUE,,"S Robertson Ave & W 5th St, Tyler, TX 75701, USA",32.3310594,-95.3065307,,"6:53,8:11,9:31,10:51,12:11,13:31,14:51,16:11,17:31,18:36,19:36",,,
Blue Line Southwest,427,5th,Chilton,Before intersection,,TRUE,,"Chilton Ave & W 5th St, Tyler, TX 75701, USA",32.331023,-95.3047152,,"6:54,8:13,9:33,10:53,12:13,13:33,14:53,16:13,17:33,18:37,19:37",,,
Blue Line Southwest,END,Roseland,8th,Bergfield Center,TRUE,,,,32.32837,-95.29945,All Lines,"6:55,8:15,9:35,10:55,12:15,13:35,14:55,16:15,17:35,18:38,19:38",,TRUE,
Green Line Northeast,500,Roseland,8th,Bergfield Center,TRUE,,,,32.32837,-95.29945,All Lines,"6:00,7:00,8:20,9:40,11:00,12:20,13:40,15:00,16:20,17:40,18:45,19:45",,TRUE,
Green Line Northeast,501,Donnybrook,6th,,,TRUE,,,32.3293,-95.2975,,"6:01,7:01,8:21,9:41,11:01,12:21,13:41,15:01,16:21,17:41,18:46,19:46",,,
Green Line Northeast,502,Beckham,,Donut Palace,,TRUE,,,32.3332,-95.2908,,"6:02,7:02,8:22,9:42,11:02,12:22,13:42,15:02,16:22,17:42,18:47,19:47",,,
Green Line Northeast,503,Beckham,Lake,ETMC Hospital,TRUE,TRUE,,"S Beckham Ave & E Lake St, Tyler, TX 75701, USA",32.336353,-95.291454,,"6:03,7:03,8:23,9:43,11:03,12:23,13:43,15:03,16:23,17:43,18:48,19:48",,,
Green Line Northeast,504,Beckham,Dawson,Trinity Mother Francis,TRUE,TRUE,,"S Beckham Ave & E Dawson St, Tyler, TX 75701, USA",32.3422592,-95.2927752,,"6:05,7:05,8:25,9:45,11:05,12:25,13:45,15:05,16:25,17:45,18:49,19:49",,,
Green Line Northeast,505,Beckham,Front,Dairy Queen,,TRUE,,"E Front St & S Beckham Ave, Tyler, TX 75702, USA",32.3466484,-95.2942625,,"6:06,7:06,8:26,9:46,11:06,12:26,13:46,15:06,16:26,17:46,18:50,19:50",,,
Green Line Northeast,506,Beckham,Elm,Good S. Church,,TRUE,,"S Beckham Ave & E Elm St, Tyler, TX 75702, USA",32.3495702,-95.2942901,,"6:07,7:07,8:27,9:47,11:07,12:27,13:47,15:07,16:27,17:47,18:51,19:51",,,
Green Line Northeast,507,Beckham,Locust,Across from Mexican Meat Market,,TRUE,,"N Beckham Ave & E Locust St, Tyler, TX 75702, USA",32.352632,-95.2943695,,"6:08,7:08,8:28,9:48,11:08,12:28,13:48,15:08,16:28,17:48,18:52,19:52",,,
Green Line Northeast,508,HWY 271,,Super One Foods,,TRUE,,,32.361,-95.29256,,"6:10,7:10,8:30,9:50,11:10,12:30,13:50,15:10,16:30,17:50,18:53,19:53",,TRUE,Using times for “Beckham and Gentry”
Green Line Northeast,509,HWY 271,Hillsboro,Family Dollar,,TRUE,,"U.S. 271 & Hillsboro St, Tyler, TX 75702, USA",32.3651104,-95.2898863,,"6:10,7:10,8:30,9:50,11:10,12:30,13:50,15:10,16:30,17:50,18:53,19:53",,,
Green Line Northeast,510,HWY 271,Laurel,Fred's,,TRUE,,"U.S. 271 & E Laurel St, Tyler, TX 75702, USA",32.3663592,-95.2894587,,"6:11,7:11,8:31,9:51,11:11,12:31,13:51,15:11,16:31,17:51,18:54,19:54",,,
Green Line Northeast,511,HWY 271,MLK,Relax Inn,,TRUE,,"U.S. 271 & E Martin Luther King Jr Blvd, Tyler, TX 75702, USA",32.3699059,-95.2884119,,"6:12,7:12,8:32,9:52,11:12,12:32,13:52,15:12,16:32,17:52,18:55,19:55",,,
Green Line Northeast,512,MLK,Haynie,,,TRUE,,,,,,"6:12,7:12,8:32,9:52,11:12,12:32,13:52,15:12,16:32,17:52,18:55,19:55",,,
Green Line Northeast,513,MLK,Church St,,,TRUE,,"E Martin Luther King Jr Blvd & Church Ave, Tyler, TX 75702, USA",32.370168,-95.297117,,"6:13,7:13,8:33,9:53,11:13,12:33,13:53,15:13,16:33,17:53,18:56,19:56",,,
Green Line Northeast,514,MLK,North Spring,,,TRUE,,"E Martin Luther King Jr Blvd & N Spring Ave, Tyler, TX 75702, USA",32.3701724,-95.299637,,"6:14,7:14,8:34,9:54,11:14,12:34,13:54,15:14,16:34,17:54,18:57,19:57",,,
Green Line Northeast,515,Broadway,Nutbush,Rail Road Crossing,,TRUE,,"N Broadway Ave & W Nutbush St, Tyler, TX 75702, USA",32.3691466,-95.3018669,Red Line North,"6:15,7:15,8:35,9:55,11:15,12:35,13:55,15:15,16:35,17:55,18:58,19:58",,TRUE,Using times for “Broadway and MLK”
Green Line Northeast,516,Broadway,Cedar,,,TRUE,,"N Broadway Ave & W Cedar St, Tyler, TX 75702, USA",32.3638406,-95.3015429,,"6:15,7:15,8:35,9:55,11:15,12:35,13:55,15:15,16:35,17:55,18:58,19:58",,,
Green Line Northeast,517,Broadway,Queen,City Park,,TRUE,,"N Broadway Ave & W Queen St, Tyler, TX 75702, USA",32.3615884,-95.3015438,,"6:15,7:15,8:35,9:55,11:15,12:35,13:55,15:15,16:35,17:55,18:58,19:58",,,
Green Line Northeast,518,Gentry,Broadway,"Salvation Army, Northeast Texas Public Health District, Tyler City Municipal Courts",,TRUE,,"W Gentry Pkwy & N Broadway Ave, Tyler, TX 75702, USA",32.359458,-95.3012504,Red Line North,"6:16,7:16,8:36,9:56,11:16,12:36,13:56,15:16,16:36,17:56,18:59,19:59",,,
Green Line Northeast,519,Gentry,Beckham,Old WIC Office,,TRUE,,"E Gentry Pkwy & N Beckham Ave, Tyler, TX 75702, USA",32.3598945,-95.2934023,,"6:16,7:16,8:36,9:56,11:16,12:36,13:56,15:16,16:36,17:56,18:59,19:59",,,
Green Line Northeast,520,Oakwood,Spring,Tyler Transit Office,,TRUE,,,32.3546,-95.29935,,"6:16,7:16,8:36,9:56,11:16,12:36,13:56,15:16,16:36,17:56,18:59,19:59",,,
Green Line Northeast,521,Beckham,Locust,Mexican Meat Market,,TRUE,,"N Beckham Ave & E Locust St, Tyler, TX 75702, USA",32.352632,-95.2943695,,"6:17,7:17,8:37,9:57,11:17,12:37,13:57,15:17,16:37,17:57,19:00,20:00",,,
Green Line Northeast,522,Beckham,Elm,Mexican Hair Dresser,,TRUE,,"S Beckham Ave & E Elm St, Tyler, TX 75702, USA",32.3495702,-95.2942901,,"6:17,7:17,8:37,9:57,11:17,12:37,13:57,15:17,16:37,17:57,19:00,20:00",,,
Green Line Northeast,523,Front,Beckham,Dairy Queen,,TRUE,,"E Front St & S Beckham Ave, Tyler, TX 75702, USA",32.3466484,-95.2942625,,"6:17,7:17,8:37,9:57,11:17,12:37,13:57,15:17,16:37,17:57,19:00,20:00",,,
Green Line Northeast,524,Front,Baxter,St. Paul Church,,TRUE,,"E Front St & S Baxter Ave, Tyler, TX 75702, USA",32.3463418,-95.2855266,,"6:18,7:18,8:38,9:58,11:18,12:38,13:58,15:18,16:38,17:58,19:01,20:01",,,
Green Line Northeast,525,Front,Palmer,Dehaven Eye Clinic,,TRUE,,"E Front St & Palmer Ave, Tyler, TX 75702, USA",32.3463718,-95.2803378,,"6:18,7:18,8:38,9:58,11:18,12:38,13:58,15:18,16:38,17:58,19:01,20:01",,,
Green Line Northeast,526,Front,Old Henderson,Fruit Stand,,TRUE,,"E Front St & Old Henderson Hwy, Tyler, TX 75702, USA",32.3466634,-95.2741492,,"6:18,7:18,8:38,9:58,11:18,12:38,13:58,15:18,16:38,17:58,19:01,20:01",,,
Green Line Northeast,527,Golden,,Salvation Army Apartments,,TRUE,,,,,,"6:19,7:19,8:39,9:59,11:19,12:39,13:59,15:19,16:39,17:59,19:02,20:02",,,
Green Line Northeast,528,Golden,,Moore Middle School,,TRUE,,,32.33594,-95.2728,,"6:19,7:19,8:39,9:59,11:19,12:39,13:59,15:19,16:39,17:59,19:02,20:02",,,
Green Line Northeast,529,Golden,5th,,,TRUE,,"E 5th St & Golden Rd, Tyler, TX 75701, USA",32.3321815,-95.2727339,,"6:20,7:20,8:40,10:00,11:20,12:40,14:00,15:20,16:40,18:00,19:03,20:03",,TRUE,
Green Line Northeast,530,5th,Tipton,Dewayne Restaurant,,TRUE,,"E 5th St & Tipton Ave, Tyler, TX 75701, USA",32.3322336,-95.2750125,,"6:22,7:23,8:43,10:03,11:23,12:43,14:03,15:23,16:43,18:02,19:05,20:05",,,
Green Line Northeast,532,5th,Palmer,After Light at Church,,TRUE,,"E 5th St & Palmer Ave, Tyler, TX 75701, USA",32.3324004,-95.280242,,"6:24,7:27,8:47,10:07,11:27,12:47,14:07,15:27,16:47,18:05,19:07,20:07",,,
Green Line Northeast,533,5th,Baxter,TJC College,TRUE,TRUE,,"E 5th St & S Baxter Ave, Tyler, TX 75701, USA",32.3324948,-95.2854533,,"6:26,7:31,8:51,10:11,11:31,12:51,14:11,15:31,16:51,18:07,19:09,20:09",,,
Green Line Northeast,END,Roseland,8th,Bergfield Center,TRUE,,,,32.32837,-95.29945,All Lines,"6:28,7:35,8:55,10:15,11:35,12:55,14:15,15:35,16:55,18:10,19:12,20:12",,TRUE,
Green Line Southeast,600,Roseland,8th,Bergfield Center,TRUE,,,,32.32837,-95.29945,All Lines,"6:30,7:40,9:00,10:20,11:40,13:00,14:20,15:40,17:00,18:15,19:15",,TRUE,
Green Line Southeast,601,Donnybrook,6th,,,TRUE,,"S Donnybrook Ave & E 6th St, Tyler, TX 75701, USA",32.3294552,-95.2975218,,"6:31,7:41,9:01,10:21,11:41,13:01,14:21,15:41,17:01,18:16,19:16",,,
Green Line Southeast,602,5th,Fleishel,Tyler Medical Park,,TRUE,,"E 5th St & S Fleishel Ave, Tyler, TX 75701, USA",32.3320263,-95.2887433,,"6:32,7:42,9:02,10:22,11:42,13:02,14:22,15:42,17:02,18:17,19:17",,,
Green Line Southeast,603,5th,Baxter,Weiner Land,,TRUE,,"E 5th St & S Baxter Ave, Tyler, TX 75701, USA",32.3324948,-95.2854533,,"6:33,7:43,9:03,10:23,11:43,13:03,14:23,15:43,17:03,18:18,19:18",,,
Green Line Southeast,604,5th,Mahon,Community Access,,TRUE,,"E 5th St & S Mahon Ave, Tyler, TX 75701, USA",32.3324453,-95.2821737,,"6:34,7:44,9:04,10:24,11:44,13:04,14:24,15:44,17:04,18:19,19:19",,,
Green Line Southeast,605,5th,Tipton,The Medicine Shop,,TRUE,,"E 5th St & Tipton Ave, Tyler, TX 75701, USA",32.3322336,-95.2750125,,"6:35,7:45,9:05,10:25,11:45,13:05,14:25,15:45,17:05,18:20,19:20",,,
Green Line Southeast,606,5th,Golden,Park Place Nurse,,TRUE,,"E 5th St & Golden Rd, Tyler, TX 75701, USA",32.3321815,-95.2727339,,"6:36,7:46,9:06,10:26,11:46,13:06,14:26,15:46,17:06,18:21,19:21",,,
Green Line Southeast,607,5th,Loop 323,Dairy Queen,,,TRUE,"E 5th St & S Southeast Loop 323, Tyler, TX 75701, USA",32.3323542,-95.2662163,,"6:38,7:48,9:08,10:28,11:48,13:08,14:28,15:48,17:08,18:22,19:22",,TRUE,
Green Line Southeast,608,Loop 323,,What-a-burger / Kidd Jones,,TRUE,,,32.32671,-95.26614,,"6:38,7:48,9:08,10:28,11:48,13:08,14:28,15:48,17:08,18:23,19:23",,,
Green Line Southeast,609,Loop 323,,Swann's Furniture,,TRUE,,,32.32433,-95.26615,,"6:39,7:49,9:09,10:29,11:49,13:09,14:29,15:49,17:09,18:24,19:24",,,
Green Line Southeast,610,Loop 323,,Aspen Place / Fox Run Apartments,,TRUE,,,32.32114,-95.26591,,"6:40,7:50,9:10,10:30,11:50,13:10,14:30,15:50,17:10,18:25,19:25",,,
Green Line Southeast,611,University,Telephone,Franklin Bank,,TRUE,,"University Blvd & Telephone Rd, Tyler, TX 75707, USA",32.3116544,-95.2663413,,"6:41,7:51,9:11,10:31,11:51,13:11,14:31,15:51,17:11,18:26,19:26",,,
Green Line Southeast,612,University,Lazy Creek,Grace Communications School,,TRUE,,"University Blvd & Lazy Creek Dr, Tyler, TX 75701, USA",32.3115714,-95.2582616,,"6:42,7:52,9:12,10:32,11:52,13:12,14:32,15:52,17:12,18:28,19:28",,TRUE,"Using times for “Spur 248 and Old Omen Rd”, which appears to be out of sequence with “Spur 248 and UT Tyler” on the time table"
Green Line Southeast,613,University,UT Tyler,Sterling House,,TRUE,,,32.31205,-95.25229,,"6:44,7:54,9:14,10:34,11:54,13:14,14:34,15:54,17:14,18:32,19:32",,,
Green Line Southeast,614,University,,ETMC Behavior Clinic,,TRUE,,,,,,"6:46,7:57,9:17,10:37,11:57,13:17,14:37,15:57,17:17,18:36,19:36",,,
Green Line Southeast,615,Old Omen,,Across from UT,TRUE,TRUE,,,,,,"6:48,8:00,9:20,10:40,12:00,13:20,14:40,16:00,17:20,18:40,19:40",,TRUE,See University and Lazy Creek
Green Line Southeast,616,Old Omen,Sandlewood,Rose Heights Church,TRUE,TRUE,,"Old Omen Rd & Sandalwood Ln, Tyler, TX 75701, USA",32.3262394,-95.254826,,"6:48,8:01,9:21,10:41,12:01,13:21,14:41,16:01,17:21,18:40,19:40",,,
Green Line Southeast,617,Old Omen,Lemont,Fair Wood Church,,TRUE,,,32.33033,-95.25904,,"6:49,8:03,9:23,10:43,12:03,13:23,14:43,16:03,17:23,18:41,19:41",,,
Green Line Southeast,618,5th,Loop 323,Taco Bell,TRUE,TRUE,,"E 5th St & S Southeast Loop 323, Tyler, TX 75701, USA",32.3323542,-95.2662163,,"6:50,8:05,9:25,10:45,12:05,13:25,14:45,16:05,17:25,18:41,19:41",,,
Green Line Southeast,619,5th,Golden,Eye Care Associates,,TRUE,,"E 5th St & Golden Rd, Tyler, TX 75701, USA",32.3321815,-95.2727339,,"6:51,8:07,9:27,10:47,12:07,13:27,14:47,16:07,17:27,18:42,19:42",,,
Green Line Southeast,620,5th,Tipton,Dwayne Restaurant,,TRUE,,"E 5th St & Tipton Ave, Tyler, TX 75701, USA",32.3322336,-95.2750125,,"6:52,8:09,9:29,10:49,12:09,13:29,14:49,16:09,17:29,18:42,19:42",,,
Green Line Southeast,622,5th,Palmer,TJC Fields,,TRUE,,"E 5th St & Palmer Ave, Tyler, TX 75701, USA",32.3324004,-95.280242,,"6:53,8:11,9:31,10:51,12:11,13:31,14:51,16:11,17:31,18:43,19:43",,,
Green Line Southeast,622,5th,Baxter,TJC College,TRUE,TRUE,,"E 5th St & S Baxter Ave, Tyler, TX 75701, USA",32.3324948,-95.2854533,,"6:54,8:13,9:33,10:53,12:13,13:33,14:53,16:13,17:33,18:43,19:43",,,
Green Line Southeast,END,Roseland,8th,Bergfield Center,TRUE,,,,32.32837,-95.29945,All Lines,"6:55,8:15,9:35,10:55,12:15,13:35,14:55,16:15,17:35,18:44,19:44",,TRUE,
Yellow Line Southwest,700,Roseland,8th,Bergfield Center,TRUE,,,,32.32837,-95.29945,All Lines,"6:00,7:00,8:20,9:40,11:00,12:20,13:40,15:00,16:20,17:40,18:45,19:45",,TRUE,
Yellow Line Southwest,701,Old Jacksonville,Sunnybrook,Good Shepherd School,,TRUE,,"Old Jacksonville Hwy & Sunnybrook Dr, Tyler, TX 75701, USA",32.3213907,-95.3078108,,"6:01,7:01,8:21,9:41,11:01,12:21,13:41,15:01,16:21,17:40,18:46,19:46",,,
Yellow Line Southwest,702,Old Jacksonville,Lake Placid,Past Grace Communications School,,TRUE,,"Old Jacksonville Hwy & Lake Placid Rd, Tyler, TX 75701, USA",32.3128635,-95.3156138,,"6:02,7:02,8:22,9:42,11:02,12:22,13:42,15:02,16:22,17:40,18:47,19:47",,,
Yellow Line Southwest,703,Old Jacksonville,Vine,Nursing Home,,TRUE,,"Old Jacksonville Hwy & S Vine Ave, Tyler, TX 75701, USA",32.3095268,-95.3203764,,"6:03,7:03,8:23,9:43,11:03,12:23,13:43,15:03,16:23,17:40,18:48,19:48",,,
Yellow Line Southwest,704,Old Jacksonville,Loop 323,Home Depot,,TRUE,,"Old Jacksonville Hwy & W Southwest Loop 323, Tyler, TX 75701, USA",32.303654,-95.3226488,,"6:04,7:04,8:24,9:44,11:04,12:24,13:44,15:04,16:24,17:40,18:49,19:49",,,
Yellow Line Southwest,705,Loop 323,Lindsey,Red Lobster,,TRUE,,,,,,"6:05,7:05,8:25,9:45,11:05,12:25,13:45,15:05,16:25,17:40,18:50,19:50",,,
Yellow Line Southwest,706,Loop 323,Kinsey,Keith Hodges Collision,,TRUE,,"W Southwest Loop 323 & Kinsey Dr, Tyler, TX 75701, USA",32.3036778,-95.3151645,,"6:06,7:06,8:26,9:46,11:06,12:26,13:46,15:06,16:26,17:40,18:51,19:51",,,
Yellow Line Southwest,707,Loop 323,,Chuck E Cheese,,TRUE,,,32.3035,-95.31071,,"6:07,7:07,8:27,9:47,11:07,12:27,13:47,15:07,16:27,17:40,18:52,19:52",,,
Yellow Line Southwest,708,Old Bullard,Boyd,Dental Office / Across from Mall,,TRUE,,"Old Bullard Rd & Boyd Ln, Tyler, TX 75703, USA",32.2994074,-95.3044001,,"6:08,7:08,8:28,9:48,11:08,12:28,13:48,15:08,16:28,17:40,18:53,19:53",,TRUE,Using times for “Old Bullard and Loop 323”
Yellow Line Southwest,709,Old Bullard,Timber Wilde,Across from Sears,,TRUE,,,32.29821,-95.30445,,"6:08,7:08,8:28,9:48,11:08,12:28,13:48,15:08,16:28,17:40,18:53,19:53",,,
Yellow Line Southwest,710,Old Bullard,Rice,Ashley Furniture,,TRUE,,"Rice Rd & Old Bullard Rd, Tyler, TX 75703, USA",32.2948042,-95.3048947,,"6:09,7:09,8:29,9:49,11:09,12:29,13:49,15:09,16:29,17:41,18:54,19:54",,,
Yellow Line Southwest,711,Old Bullard,Carriage,Rice School,,TRUE,,"Old Bullard Rd & Carriage Dr, Tyler, TX 75703, USA",32.2922632,-95.3055937,,"6:09,7:09,8:29,9:49,11:09,12:29,13:49,15:09,16:29,17:41,18:54,19:54",,,
Yellow Line Southwest,712,Old Bullard,Chimney Rock,Bullard Crossing Apartments,,TRUE,,"Old Bullard Rd & Chimney Rock Dr, Tyler, TX 75703, USA",32.2852282,-95.3065728,,"6:10,7:10,8:30,9:50,11:10,12:30,13:50,15:10,16:30,17:42,18:55,19:55",,,
Yellow Line Southwest,713,Old Bullard,Old Grande,Salada main entrance,,TRUE,,"Old Bullard Rd & Old Grande Blvd, Tyler, TX 75703, USA",32.2824739,-95.3069365,,"6:11,7:11,8:31,9:51,11:11,12:31,13:51,15:11,16:31,17:43,18:56,19:56",,,
Yellow Line Southwest,714,Old Bullard,Old Grande,Salada at Grande,,TRUE,,"Old Bullard Rd & Old Grande Blvd, Tyler, TX 75703, USA",32.2824739,-95.3069365,,"6:11,7:11,8:31,9:51,11:11,12:31,13:51,15:11,16:31,17:43,18:56,19:56",,,
Yellow Line Southwest,715,Old Grande,Wilshire,,,TRUE,,"Old Grande Blvd & Wilshire Dr, Tyler, TX 75703, USA",32.2811096,-95.3105278,,"6:12,7:12,8:32,9:52,11:12,12:32,13:52,15:12,16:32,17:44,18:57,19:57",,,
Yellow Line Southwest,716,Grande,Hollytree,Hollytree Storage,,TRUE,,"W Grande Blvd & Hollytree Dr, Tyler, TX 75703, USA",32.2798944,-95.3155372,,"6:13,7:13,8:33,9:53,11:13,12:33,13:53,15:13,16:33,17:45,18:58,19:58",,TRUE,
Yellow Line Southwest,717,Grande,,Grande Hill Apartments,,TRUE,,,,,,"6:13,7:14,8:33,9:53,11:13,12:33,13:53,15:13,16:33,17:45,18:58,19:58",,,
Yellow Line Southwest,718,Grande,Glen Eagles,Grande Assisted Living,,TRUE,,"W Grande Blvd & Gleneagles Dr, Tyler, TX 75703, USA",32.2809162,-95.3291079,,"6:14,7:15,8:34,9:54,11:14,12:33,13:54,15:14,16:33,17:46,18:59,19:59",,,
Yellow Line Southwest,719,Grande,Old Jacksonville,Texas Bank and Trust,,TRUE,,"Old Jacksonville Hwy & W Grande Blvd, Tyler, TX 75703, USA",32.2809442,-95.3332229,,"6:15,7:16,8:35,9:55,11:15,12:33,13:55,15:15,16:33,17:47,19:00,20:00",,,
Yellow Line Southwest,720,Old Jacksonville,,The Woodlands,,TRUE,,,,,,"6:16,7:17,8:36,9:56,11:16,12:33,13:56,15:16,16:34,17:48,19:01,20:01",,,
Yellow Line Southwest,721,Old Jacksonville,Rice,Vet Office,,TRUE,,"Old Jacksonville Hwy & Rice Rd, Tyler, TX 75701, USA",32.2917519,-95.3265675,,"6:17,7:18,8:37,9:57,11:17,12:33,13:57,15:17,16:34,17:49,19:02,20:02",,,
Yellow Line Southwest,722,Old Jacksonville,,Before Brookshires Wildlife Museum,,TRUE,,,,,,"6:18,7:19,8:38,9:57,11:18,12:33,13:58,15:17,16:34,17:50,19:03,20:03",,,
Yellow Line Southwest,723,Old Jacksonville,Loop 323,Brookshire's Wildlife Museum,,TRUE,,"Old Jacksonville Hwy & W Southwest Loop 323, Tyler, TX 75701, USA",32.303654,-95.3226488,,"6:19,7:20,8:39,9:58,11:19,12:33,13:59,15:18,16:34,17:51,19:04,20:04",,,
Yellow Line Southwest,724,Loop 323,Republic,Fairfield Inn,,TRUE,,"W Southwest Loop 323 & Republic Dr, Tyler, TX 75701, USA",32.3036447,-95.3277749,,"6:20,7:21,8:40,9:59,11:20,12:33,14:00,15:19,16:35,17:52,19:05,20:05",,,
Yellow Line Southwest,725,Loop 323,Republic,Golden China Cafe / Pawn Shop,,TRUE,,"W Southwest Loop 323 & Republic Dr, Tyler, TX 75701, USA",32.3036447,-95.3277749,,"6:21,7:22,8:41,10:00,11:21,12:33,14:01,15:20,16:35,17:53,19:06,20:06",,,
Yellow Line Southwest,726,Loop 323,,Sweet Sue's,,TRUE,,,,,,"6:22,7:23,8:42,10:01,11:22,12:33,14:02,15:21,16:35,17:54,19:07,20:07",,,
Yellow Line Southwest,728,Towne Park,,Villas of Pineridge,,TRUE,,,32.31336,-95.3329,,"6:23,7:24,8:43,10:02,11:23,12:34,14:03,15:22,16:36,17:55,19:08,20:08",,TRUE,Using times for “Towne Park and Loop 323”
Yellow Line Southwest,729,Loop 323,,Windsor Inn,,TRUE,,,32.31017,-95.3405,,"6:23,7:25,8:44,10:03,11:24,12:36,14:04,15:23,16:38,17:56,19:08,20:08",,,
Yellow Line Southwest,730,HWY 155,Goss,St. Louis Baptist Church,TRUE,TRUE,,"Hwy 155 & Goss St, Tyler, TX 75701, USA",32.3074332,-95.3351117,,"6:24,7:26,8:46,10:05,11:26,12:39,14:06,15:25,16:40,17:58,19:09,20:09",,,
Yellow Line Southwest,731,HWY 155,Seaton,Lone Star Storage,,TRUE,,"Hwy 155 & Seaton St, Tyler, TX 75701, USA",32.311004,-95.3320887,,"6:24,7:28,8:47,10:06,11:27,12:41,14:07,15:26,16:43,18:00,19:09,20:09",,,
Yellow Line Southwest,732,HWY 155,Luther,City of Tyler Streets,,TRUE,,"Hwy 155 & Luther St, Tyler, TX 75701, USA",32.3140587,-95.3291236,,"6:25,7:29,8:49,10:08,11:29,12:44,14:09,15:28,16:45,18:02,19:10,20:10",,,
Yellow Line Southwest,733,HWY 155,Old Noonday,Fire Station,,TRUE,,"Hwy 155 & Old Noonday Rd, Tyler, TX 75701, USA",32.3212601,-95.3222356,,"6:26,7:30,8:50,10:10,11:30,12:47,14:10,15:30,16:47,18:04,19:10,20:10",,,
Yellow Line Southwest,734,HWY 155,Sunnybrook,East Texas Child Advocacy,,TRUE,,"Hwy 155 & Sunnybrook Dr, Tyler, TX 75701, USA",32.3276471,-95.3134399,,"6:26,7:32,8:52,10:11,11:32,12:49,14:12,15:31,16:50,18:06,19:11,20:11",,,
Yellow Line Southwest,735,Sunnybrook,Camellia,Pedestrian Crosswalk,,,TRUE,,32.32452,-95.3121,,"6:27,7:33,8:53,10:13,11:33,12:52,14:13,15:33,16:52,18:08,19:11,20:11",,,
Yellow Line Southwest,END,Roseland,8th,Bergfield Center,TRUE,,,,32.32837,-95.29945,All Lines,"6:28,7:35,8:55,10:15,11:35,12:55,14:15,15:35,16:55,18:10,19:12,20:12",,TRUE,
Yellow Line Southeast,800,Roseland,8th,Bergfield Center,TRUE,,,,32.32837,-95.29945,All Lines,"6:30,7:40,9:00,10:20,11:40,13:00,14:20,15:40,17:00,18:15,19:15",,TRUE,
Yellow Line Southeast,801,Old Troup,Fleishel,Vacant Lot,,TRUE,,,,,,"6:31,7:41,9:01,10:21,11:41,13:01,14:21,15:41,17:01,18:16,19:16",,,
Yellow Line Southeast,802,Troup,Green Acres,Green Acres Shopping Center,,TRUE,,,32.31759,-95.27855,,"6:32,7:43,9:03,10:23,11:43,13:03,14:23,15:43,17:03,18:17,19:17",,,
Yellow Line Southeast,803,Troup,Golden,Bank of America,,TRUE,,"Troup Hwy & Golden Rd, Tyler, TX 75701, USA",32.3139434,-95.2757074,,"6:33,7:45,9:05,10:25,11:45,13:05,14:25,15:45,17:05,18:18,19:18",,,
Yellow Line Southeast,804,Troup,Lindbergh,Across from Texas Workforce,,TRUE,,"Troup Hwy & Lindbergh Dr, Tyler, TX 75703, USA",32.3071807,-95.2717358,,"6:35,7:47,9:07,10:27,11:47,13:07,14:27,15:47,17:07,18:20,19:20",,TRUE,Using times for “Troup Hwy and Loop 323”
Yellow Line Southeast,805,Troup,Hillside,Highland Center,,TRUE,,,32.30457,-95.2663,,"6:36,7:48,9:08,10:28,11:48,13:08,14:28,15:48,17:08,18:21,19:21",,,
Yellow Line Southeast,806,Troup,Kensington,Etcil,TRUE,TRUE,,"Troup Hwy & Kensington Dr, Tyler, TX 75703, USA",32.2997413,-95.2664391,,"6:37,7:49,9:09,10:29,11:49,13:09,14:29,15:49,17:09,18:22,19:22",,,
Yellow Line Southeast,807,Troup,Shiloh,Chase Bank,TRUE,TRUE,,"Troup Hwy & Shiloh Rd, Tyler, TX 75707, USA",32.2953937,-95.2613905,,"6:38,7:50,9:10,10:30,11:50,13:10,14:30,15:50,17:10,18:23,19:23",,,
Yellow Line Southeast,808,Shiloh,Thistle,Chelsea Creek Apartments,,TRUE,,"Shiloh Rd & Thistle Dr, Tyler, TX 75703, USA",32.2953329,-95.2666412,,"6:39,7:51,9:11,10:31,11:51,13:11,14:31,15:51,17:11,18:24,19:24",,,
Yellow Line Southeast,809,Shiloh,Kirkcaldey,Hidden Springs Apartments,,TRUE,,"Shiloh Rd & Kirkcaldey Dr, Tyler, TX 75703, USA",32.2953325,-95.2723596,,"6:40,7:52,9:12,10:32,11:52,13:12,14:32,15:52,17:12,18:25,19:25",,,
Yellow Line Southeast,810,Shiloh,Edinburgh,Shiloh Road Mobile Park,,TRUE,,"Shiloh Rd & Edinburgh Dr, Tyler, TX 75703, USA",32.2953378,-95.2684622,,"6:41,7:53,9:13,10:33,11:53,13:13,14:33,15:53,17:13,18:26,19:26",,,
Yellow Line Southeast,811,Shiloh,Edinburgh,Hidden Springs Apartments,,,,"Shiloh Rd & Edinburgh Dr, Tyler, TX 75703, USA",32.2953378,-95.2684622,,"6:42,7:54,9:14,10:34,11:54,13:14,14:34,15:54,17:14,18:27,19:27",,,
Yellow Line Southeast,812,Paluxy,Shiloh,The Ridge Apartments,,TRUE,,"Paluxy Dr & Shiloh Rd, Tyler, TX 75703, USA",32.2952896,-95.278834,,"6:44,7:55,9:15,10:35,11:55,13:15,14:35,15:55,17:15,18:29,19:29",,TRUE,
Yellow Line Southeast,813,Paluxy,Sequoia,Meadowbrook Apartments,TRUE,TRUE,,"Paluxy Dr & Sequoia Dr, Tyler, TX 75703, USA",32.3015517,-95.2788955,,"6:45,7:56,9:16,10:36,11:56,13:16,14:36,15:56,17:16,18:31,19:31",,,
Yellow Line Southeast,814,Linburgh,Troup,ETMC Sleep Center,,TRUE,,"Troup Hwy & Lindbergh Dr, Tyler, TX 75703, USA",32.3071807,-95.2717358,,"6:46,7:57,9:17,10:37,11:57,13:17,14:37,15:57,17:17,18:34,19:34",,,
Yellow Line Southeast,815,Rickety,Southpark,Paluxy Square,,TRUE,,"Southpark Dr & Rickety Ln, Tyler, TX 75703, USA",32.3071956,-95.2757883,,"6:47,7:58,9:18,10:38,11:58,13:18,14:38,15:58,17:18,18:36,19:36",,,
Yellow Line Southeast,816,Troup,Lindbergh,Super One Foods,TRUE,TRUE,,"Troup Hwy & Lindbergh Dr, Tyler, TX 75703, USA",32.3071807,-95.2717358,,"6:49,8:00,9:20,10:40,12:00,13:20,14:40,16:00,17:20,18:39,19:39",,TRUE,Using times for “Troup Hwy and Loop 323”
Yellow Line Southeast,817,Troup,Golden,Texico,,TRUE,,"Troup Hwy & Golden Rd, Tyler, TX 75701, USA",32.3139434,-95.2757074,,"6:51,8:05,9:25,10:45,12:05,13:25,14:45,16:05,17:23,18:40,19:40",,,
Yellow Line Southeast,818,Old Troup,Fleishel,Firestation #7,,TRUE,,,,,,"6:53,8:10,9:30,10:50,12:10,13:30,14:50,16:10,17:26,18:41,19:41",,,
Yellow Line Southeast,END,Roseland,8th,Bergfield Center,TRUE,,,,32.32837,-95.29945,All Lines,"6:55,8:15,9:35,10:55,12:15,13:35,14:55,16:15,17:30,18:42,19:42",,TRUE,
