TRANSIT_ROUTES = {"Red Line North": [{"stop_street": "Broadway", "geocoded_address": "S Broadway Ave & W Dobbs St, Tyler, TX 75701, USA", "next_cross_street": "Dobbs", "shelter": false, "longitude": -95.300593899999996, "sign": true, "latitude": 32.339082500000004, "flag": false, "landmark": "Hogg Middle School", "order": 102}, {"stop_street": "Broadway", "geocoded_address": "S Broadway Ave & E Charnwood St, Tyler, TX 75701, USA", "next_cross_street": "Charnwood", "shelter": false, "longitude": -95.300597499999995, "sign": true, "latitude": 32.342550299999999, "flag": false, "landmark": "Jones Hearing (Doctor Office)", "order": 103}, {"stop_street": "Broadway", "geocoded_address": "S Broadway Ave & W Houston St, Tyler, TX 75702, USA", "next_cross_street": "Houston", "shelter": false, "longitude": -95.300617900000006, "sign": true, "latitude": 32.343748400000003, "flag": false, "landmark": "United Healthcare", "order": 104}, {"stop_street": "Broadway", "geocoded_address": "S Broadway Ave & W Elm St, Tyler, TX 75702, USA", "next_cross_street": "Elm", "shelter": false, "longitude": -95.300616500000004, "sign": true, "latitude": 32.3496758, "flag": false, "landmark": "Across from Library", "order": 106}, {"stop_street": "Broadway", "geocoded_address": "N Broadway Ave & W Ferguson St, Tyler, TX 75702, USA", "next_cross_street": "Ferguson", "shelter": false, "longitude": -95.300620199999997, "sign": true, "latitude": 32.351719899999999, "flag": false, "landmark": "Regions Bank", "order": 107}, {"stop_street": "Broadway", "geocoded_address": "N Broadway Ave & E Bow St, Tyler, TX 75702, USA", "next_cross_street": "Bow", "shelter": true, "longitude": -95.3007293, "sign": true, "latitude": 32.358220699999997, "flag": false, "landmark": "Salvation Army", "order": 108}, {"stop_street": "Broadway", "geocoded_address": "N Broadway Ave & W Queen St, Tyler, TX 75702, USA", "next_cross_street": "Queen", "shelter": false, "longitude": -95.301543800000005, "sign": true, "latitude": 32.361588400000002, "flag": false, "landmark": "Roberts Juvenile Building", "order": 109}, {"stop_street": "Broadway", "geocoded_address": "N Broadway Ave & W Cedar St, Tyler, TX 75702, USA", "next_cross_street": "Cedar", "shelter": false, "longitude": -95.301542900000001, "sign": true, "latitude": 32.363840600000003, "flag": false, "landmark": "", "order": 110}, {"stop_street": "Broadway", "geocoded_address": "N Broadway Ave & W Franklin St, Tyler, TX 75702, USA", "next_cross_street": "Franklin", "shelter": false, "longitude": -95.301526499999994, "sign": true, "latitude": 32.366390699999997, "flag": false, "landmark": "", "order": 111}, {"stop_street": "Broadway", "geocoded_address": "N Broadway Ave & W Martin Luther King Jr Blvd, Tyler, TX 75702, USA", "next_cross_street": "MLK", "shelter": false, "longitude": -95.301884599999994, "sign": true, "latitude": 32.370177499999997, "flag": false, "landmark": "Iglesia Church", "order": 112}, {"stop_street": "Broadway", "geocoded_address": "N Broadway Ave & W Barrett St, Tyler, TX 75702, USA", "next_cross_street": "Barrett", "shelter": false, "longitude": -95.301877599999997, "sign": true, "latitude": 32.3710892, "flag": false, "landmark": "Christian Teaching", "order": 113}, {"stop_street": "Broadway", "geocoded_address": "", "next_cross_street": "28th", "shelter": true, "longitude": -95.301900000000003, "sign": true, "latitude": 32.374940000000002, "flag": false, "landmark": "Liberty Arms/Apt", "order": 114}, {"stop_street": "32nd", "geocoded_address": "", "next_cross_street": "", "shelter": true, "longitude": -95.305599999999998, "sign": true, "latitude": 32.380659999999999, "flag": false, "landmark": "Boys and Girls / Glass Center", "order": 115}, {"stop_street": "32nd", "geocoded_address": "", "next_cross_street": "Glass Ave", "shelter": false, "longitude": -95.307599999999994, "sign": true, "latitude": 32.38064, "flag": false, "landmark": "Woldert Park", "order": 116}, {"stop_street": "32nd", "geocoded_address": "N Grand Ave & 32nd St, Tyler, TX 75702, USA", "next_cross_street": "Grande Ave", "shelter": false, "longitude": -95.310882800000002, "sign": true, "latitude": 32.380658099999998, "flag": false, "landmark": "Before intersection", "order": 117}, {"stop_street": "Grand", "geocoded_address": "N Grand Ave & 31st St, Tyler, TX 75702, USA", "next_cross_street": "31st", "shelter": false, "longitude": -95.310872200000006, "sign": true, "latitude": 32.379633300000002, "flag": false, "landmark": "", "order": 118}, {"stop_street": "Grand", "geocoded_address": "N Grand Ave & 30th St, Tyler, TX 75702, USA", "next_cross_street": "30th", "shelter": false, "longitude": -95.310874400000003, "sign": true, "latitude": 32.378556500000002, "flag": false, "landmark": "", "order": 119}, {"stop_street": "Grand", "geocoded_address": "", "next_cross_street": "", "shelter": false, "longitude": -95.310900000000004, "sign": true, "latitude": 32.376710000000003, "flag": false, "landmark": "Grand Manor", "order": 120}, {"stop_street": "Grand", "geocoded_address": "", "next_cross_street": "", "shelter": true, "longitude": -95.310900000000004, "sign": true, "latitude": 32.375079999999997, "flag": false, "landmark": "Texas College", "order": 121}, {"stop_street": "Grand", "geocoded_address": "W Barrett St & Grand Ave, Tyler, TX 75702, USA", "next_cross_street": "Barrett", "shelter": false, "longitude": -95.310992999999996, "sign": true, "latitude": 32.371892199999998, "flag": false, "landmark": "", "order": 122}, {"stop_street": "MLK", "geocoded_address": "W Martin Luther King Jr Blvd & N Ross Ave, Tyler, TX 75702, USA", "next_cross_street": "Ross", "shelter": false, "longitude": -95.313423999999998, "sign": true, "latitude": 32.370384000000001, "flag": false, "landmark": "", "order": 123}, {"stop_street": "MLK", "geocoded_address": "W Martin Luther King Jr Blvd & N Englewood Ave, Tyler, TX 75702, USA", "next_cross_street": "Englewood", "shelter": false, "longitude": -95.315719999999999, "sign": true, "latitude": 32.370361099999997, "flag": false, "landmark": "", "order": 124}, {"stop_street": "MLK", "geocoded_address": "W Martin Luther King Jr Blvd & N Hill Ave, Tyler, TX 75702, USA", "next_cross_street": "Hill", "shelter": false, "longitude": -95.317475799999997, "sign": true, "latitude": 32.370326200000001, "flag": false, "landmark": "", "order": 125}, {"stop_street": "Glenwood", "geocoded_address": "N Glenwood Blvd & Nancy Dr, Tyler, TX 75702, USA", "next_cross_street": "Nancy", "shelter": false, "longitude": -95.318997300000007, "sign": true, "latitude": 32.369157700000002, "flag": false, "landmark": "", "order": 126}, {"stop_street": "Glenwood", "geocoded_address": "", "next_cross_street": "Harmony", "shelter": false, "longitude": -95.319000000000003, "sign": true, "latitude": 32.366, "flag": false, "landmark": "Dr. Pepper Company", "order": 127}, {"stop_street": "Glenwood", "geocoded_address": "W Gentry Pkwy & N Glenwood Blvd, Tyler, TX 75702, USA", "next_cross_street": "Gentry", "shelter": false, "longitude": -95.318980199999999, "sign": false, "latitude": 32.362212, "flag": true, "landmark": "Hickory Fair", "order": 128}, {"stop_street": "Gentry", "geocoded_address": "W Gentry Pkwy & Meadow Ln, Tyler, TX 75702, USA", "next_cross_street": "Meadow", "shelter": false, "longitude": -95.316963400000006, "sign": true, "latitude": 32.361019400000004, "flag": false, "landmark": "Labor Ready", "order": 129}, {"stop_street": "Gentry", "geocoded_address": "", "next_cross_street": "Bow and Ross", "shelter": false, "longitude": -95.314070000000001, "sign": true, "latitude": 32.35951, "flag": false, "landmark": "Exxon", "order": 130}, {"stop_street": "Gentry", "geocoded_address": "W Gentry Pkwy & N Palace Ave, Tyler, TX 75702, USA", "next_cross_street": "Palace", "shelter": true, "longitude": -95.310237999999998, "sign": true, "latitude": 32.359600299999997, "flag": false, "landmark": "Neighborhood Services", "order": 131}, {"stop_street": "Gentry", "geocoded_address": "W Gentry Pkwy & N Harris Ave, Tyler, TX 75702, USA", "next_cross_street": "Harris", "shelter": false, "longitude": -95.307546799999997, "sign": true, "latitude": 32.359616199999998, "flag": false, "landmark": "Building Blocks Day Care", "order": 132}, {"stop_street": "Gentry", "geocoded_address": "", "next_cross_street": "Bois D'Arc", "shelter": false, "longitude": -95.302819999999997, "sign": true, "latitude": 32.359549999999999, "flag": false, "landmark": "Bumper to Bumper Auto Pars", "order": 133}, {"stop_street": "Broadway", "geocoded_address": "N Broadway Ave & E Bow St, Tyler, TX 75702, USA", "next_cross_street": "Bow", "shelter": false, "longitude": -95.3007293, "sign": true, "latitude": 32.358220699999997, "flag": false, "landmark": "Catholic Church", "order": 134}, {"stop_street": "Broadway", "geocoded_address": "N Broadway Ave & W Ferguson St, Tyler, TX 75702, USA", "next_cross_street": "Ferguson", "shelter": true, "longitude": -95.300620199999997, "sign": true, "latitude": 32.351719899999999, "flag": false, "landmark": "KLTV", "order": 135}, {"stop_street": "Broadway", "geocoded_address": "S Broadway Ave & W Elm St, Tyler, TX 75702, USA", "next_cross_street": "Elm", "shelter": false, "longitude": -95.300616500000004, "sign": true, "latitude": 32.3496758, "flag": false, "landmark": "Expert Tire", "order": 136}, {"stop_street": "Broadway", "geocoded_address": "S Broadway Ave & W Front St, Tyler, TX 75702, USA", "next_cross_street": "Front", "shelter": true, "longitude": -95.300597699999997, "sign": true, "latitude": 32.346621300000002, "flag": false, "landmark": "Catholic Church", "order": 137}, {"stop_street": "Houston", "geocoded_address": "E Houston St & S Spring Ave, Tyler, TX 75702, USA", "next_cross_street": "Spring", "shelter": false, "longitude": -95.299550999999994, "sign": true, "latitude": 32.343741000000001, "flag": false, "landmark": "Birdsong and Armstrong", "order": 138}, {"stop_street": "Houston", "geocoded_address": "", "next_cross_street": "Niblack", "shelter": false, "longitude": -95.296229999999994, "sign": true, "latitude": 32.343730000000001, "flag": false, "landmark": "The Citadel Apartment", "order": 139}, {"stop_street": "Beckham", "geocoded_address": "S Beckham Ave & E Houston St, Tyler, TX 75702, USA", "next_cross_street": "Houston", "shelter": false, "longitude": -95.293181500000003, "sign": true, "latitude": 32.343574699999998, "flag": false, "landmark": "Subway across from TMF", "order": 140}, {"stop_street": "Beckham", "geocoded_address": "S Beckham Ave & Hospital Dr, Tyler, TX 75701, USA", "next_cross_street": "Hospital Dr", "shelter": true, "longitude": -95.291705800000003, "sign": true, "latitude": 32.337457000000001, "flag": false, "landmark": "Olympic Plaza", "order": 141}, {"stop_street": "Beckham", "geocoded_address": "E 5th St & S Beckham Ave, Tyler, TX 75701, USA", "next_cross_street": "5th", "shelter": false, "longitude": -95.290458799999996, "sign": true, "latitude": 32.331588500000002, "flag": false, "landmark": "Car Loan Place", "order": 142}], "Blue Line Southwest": [{"stop_street": "4th", "geocoded_address": "W 4th St & S College Ave, Tyler, TX 75701, USA", "next_cross_street": "College", "shelter": false, "longitude": -95.302664899999996, "sign": true, "latitude": 32.332025700000003, "flag": false, "landmark": "Bergfield Park", "order": 401}, {"stop_street": "Glenwood", "geocoded_address": "W Glenwood Blvd & Kennedy Ave, Tyler, TX 75701, USA", "next_cross_street": "Kennedy", "shelter": false, "longitude": -95.308465400000003, "sign": true, "latitude": 32.3315743, "flag": false, "landmark": "Plyler School", "order": 402}, {"stop_street": "Vine", "geocoded_address": "S Vine Ave & W 5th St, Tyler, TX 75701, USA", "next_cross_street": "5th", "shelter": false, "longitude": -95.311940100000001, "sign": true, "latitude": 32.330649700000002, "flag": false, "landmark": "Donut Shop", "order": 403}, {"stop_street": "Frankston", "geocoded_address": "Frankston Hwy & Mosely St, Tyler, TX 75701, USA", "next_cross_street": "Mosley", "shelter": false, "longitude": -95.318157499999998, "sign": true, "latitude": 32.324245300000001, "flag": false, "landmark": "", "order": 404}, {"stop_street": "Frankston", "geocoded_address": "Frankston Hwy & Walton Rd, Tyler, TX 75701, USA", "next_cross_street": "Walton", "shelter": true, "longitude": -95.323983400000003, "sign": true, "latitude": 32.319363699999997, "flag": false, "landmark": "Fire Station", "order": 405}, {"stop_street": "Walton", "geocoded_address": "Walton Rd & Monroe Ave, Tyler, TX 75701, USA", "next_cross_street": "Monroe", "shelter": false, "longitude": -95.325256400000001, "sign": true, "latitude": 32.319398, "flag": false, "landmark": "", "order": 406}, {"stop_street": "Walton", "geocoded_address": "Walton Rd & Rhinehart St, Tyler, TX 75701, USA", "next_cross_street": "Rhinehart", "shelter": false, "longitude": -95.329057300000002, "sign": true, "latitude": 32.319359499999997, "flag": false, "landmark": "Smith Temple Church", "order": 407}, {"stop_street": "Walton", "geocoded_address": "Walton Rd & Depriest Ave, Tyler, TX 75701, USA", "next_cross_street": "Deprest", "shelter": false, "longitude": -95.331691599999999, "sign": true, "latitude": 32.319333, "flag": false, "landmark": "Across from St. Louis School", "order": 408}, {"stop_street": "Walton", "geocoded_address": "Walton Rd & Jersey St, Tyler, TX 75701, USA", "next_cross_street": "Jersey", "shelter": false, "longitude": -95.336918900000001, "sign": true, "latitude": 32.319313999999999, "flag": false, "landmark": "At intersection", "order": 409}, {"stop_street": "Walton", "geocoded_address": "W Southwest Loop 323 & Walton Rd, Tyler, TX, USA", "next_cross_street": "Loop 323", "shelter": true, "longitude": -95.342322999999993, "sign": true, "latitude": 32.319296000000001, "flag": false, "landmark": "Southwest Pines Apartments", "order": 410}, {"stop_street": "Robertson", "geocoded_address": "W Southwest Loop 323 & Robertson Rd, Tyler, TX 75701, USA", "next_cross_street": "Loop 323", "shelter": true, "longitude": -95.340469400000003, "sign": true, "latitude": 32.332920199999997, "flag": false, "landmark": "RTDC School", "order": 411}, {"stop_street": "Robertson", "geocoded_address": "Robertson Rd & Bennett Ave, Tyler, TX 75701, USA", "next_cross_street": "Bennet", "shelter": false, "longitude": -95.336686499999999, "sign": true, "latitude": 32.332945299999999, "flag": false, "landmark": "Andrews Center", "order": 412}, {"stop_street": "Shaw", "geocoded_address": "", "next_cross_street": "Loop 323 WSW", "shelter": false, "longitude": -95.3386, "sign": true, "latitude": 32.336320000000001, "flag": false, "landmark": "Hollywood Theater", "order": 413}, {"stop_street": "Front", "geocoded_address": "", "next_cross_street": "Loop 323", "shelter": true, "longitude": null, "sign": true, "latitude": null, "flag": false, "landmark": "Westwood Shopping Center", "order": 414}, {"stop_street": "Front", "geocoded_address": "W Front St & Southgate Ave, Tyler, TX 75702, USA", "next_cross_street": "Southgate", "shelter": false, "longitude": -95.333215699999997, "sign": false, "latitude": 32.346508900000003, "flag": true, "landmark": "", "order": 415}, {"stop_street": "Front", "geocoded_address": "W Front St & S Lyons Ave, Tyler, TX 75702, USA", "next_cross_street": "Lyons", "shelter": true, "longitude": -95.326196300000007, "sign": true, "latitude": 32.346536499999999, "flag": false, "landmark": "Andrews Center", "order": 416}, {"stop_street": "Bellwood", "geocoded_address": "Bellwood Rd & S Lyons Ave, Tyler, TX 75701, USA", "next_cross_street": "Lyons", "shelter": false, "longitude": -95.326201800000007, "sign": true, "latitude": 32.340493000000002, "flag": false, "landmark": "", "order": 417}, {"stop_street": "Bellwood", "geocoded_address": "", "next_cross_street": "", "shelter": true, "longitude": null, "sign": true, "latitude": null, "flag": false, "landmark": "Parkview Apartments", "order": 418}, {"stop_street": "Bellwood", "geocoded_address": "Bellwood Rd & Peach Ave, Tyler, TX 75701, USA", "next_cross_street": "Peach", "shelter": false, "longitude": -95.32011, "sign": true, "latitude": 32.341945199999998, "flag": false, "landmark": "Pete School", "order": 419}, {"stop_street": "Houston", "geocoded_address": "W Houston St & S Confederate Ave, Tyler, TX 75701, USA", "next_cross_street": "Confederate", "shelter": false, "longitude": -95.314720699999995, "sign": true, "latitude": 32.343715600000003, "flag": false, "landmark": "", "order": 420}, {"stop_street": "Houston", "geocoded_address": "W Houston St & S Palace Ave, Tyler, TX 75701, USA", "next_cross_street": "Palace", "shelter": false, "longitude": -95.310206399999998, "sign": true, "latitude": 32.343705800000002, "flag": false, "landmark": "Across from Fina Station", "order": 421}, {"stop_street": "Vine", "geocoded_address": "S Vine Ave & Rusk St, Tyler, TX 75701, USA", "next_cross_street": "Rusk", "shelter": false, "longitude": -95.308685800000006, "sign": true, "latitude": 32.341330900000003, "flag": false, "landmark": "Big Blue House", "order": 422}, {"stop_street": "Vine", "geocoded_address": "S Vine Ave & Lindsey Ln, Tyler, TX 75701, USA", "next_cross_street": "Lindsey", "shelter": false, "longitude": -95.308579499999993, "sign": true, "latitude": 32.337936599999999, "flag": false, "landmark": "Gonzales Grocery", "order": 423}, {"stop_street": "Vine", "geocoded_address": "S Vine Ave & Mockingbird Ln, Tyler, TX 75701, USA", "next_cross_street": "Mockingbird", "shelter": false, "longitude": -95.309198800000004, "sign": true, "latitude": 32.335984500000002, "flag": false, "landmark": "Pt Cole Park", "order": 424}, {"stop_street": "Glenwood", "geocoded_address": "W Glenwood Blvd & Kennedy Ave, Tyler, TX 75701, USA", "next_cross_street": "Kennedy", "shelter": false, "longitude": -95.308465400000003, "sign": true, "latitude": 32.3315743, "flag": false, "landmark": "Plyler School", "order": 425}, {"stop_street": "5th", "geocoded_address": "S Robertson Ave & W 5th St, Tyler, TX 75701, USA", "next_cross_street": "Robertson", "shelter": false, "longitude": -95.306530699999996, "sign": true, "latitude": 32.331059400000001, "flag": false, "landmark": "Before intersection", "order": 426}, {"stop_street": "5th", "geocoded_address": "Chilton Ave & W 5th St, Tyler, TX 75701, USA", "next_cross_street": "Chilton", "shelter": false, "longitude": -95.304715200000004, "sign": true, "latitude": 32.331023000000002, "flag": false, "landmark": "Before intersection", "order": 427}], "Yellow Line Southwest": [{"stop_street": "Old Jacksonville", "geocoded_address": "Old Jacksonville Hwy & Sunnybrook Dr, Tyler, TX 75701, USA", "next_cross_street": "Sunnybrook", "shelter": false, "longitude": -95.307810799999999, "sign": true, "latitude": 32.321390700000002, "flag": false, "landmark": "Good Shepherd School", "order": 701}, {"stop_street": "Old Jacksonville", "geocoded_address": "Old Jacksonville Hwy & Lake Placid Rd, Tyler, TX 75701, USA", "next_cross_street": "Lake Placid", "shelter": false, "longitude": -95.315613799999994, "sign": true, "latitude": 32.312863499999999, "flag": false, "landmark": "Past Grace Communications School", "order": 702}, {"stop_street": "Old Jacksonville", "geocoded_address": "Old Jacksonville Hwy & S Vine Ave, Tyler, TX 75701, USA", "next_cross_street": "Vine", "shelter": false, "longitude": -95.320376400000001, "sign": true, "latitude": 32.3095268, "flag": false, "landmark": "Nursing Home", "order": 703}, {"stop_street": "Old Jacksonville", "geocoded_address": "Old Jacksonville Hwy & W Southwest Loop 323, Tyler, TX 75701, USA", "next_cross_street": "Loop 323", "shelter": false, "longitude": -95.322648799999996, "sign": true, "latitude": 32.303654000000002, "flag": false, "landmark": "Home Depot", "order": 704}, {"stop_street": "Loop 323", "geocoded_address": "", "next_cross_street": "Lindsey", "shelter": false, "longitude": null, "sign": true, "latitude": null, "flag": false, "landmark": "Red Lobster", "order": 705}, {"stop_street": "Loop 323", "geocoded_address": "W Southwest Loop 323 & Kinsey Dr, Tyler, TX 75701, USA", "next_cross_street": "Kinsey", "shelter": false, "longitude": -95.315164499999995, "sign": true, "latitude": 32.303677800000003, "flag": false, "landmark": "Keith Hodges Collision", "order": 706}, {"stop_street": "Loop 323", "geocoded_address": "", "next_cross_street": "", "shelter": false, "longitude": null, "sign": true, "latitude": null, "flag": false, "landmark": "Chuck E Cheese", "order": 707}, {"stop_street": "Old Bullard", "geocoded_address": "Old Bullard Rd & Boyd Ln, Tyler, TX 75703, USA", "next_cross_street": "Boyd", "shelter": false, "longitude": -95.304400099999995, "sign": true, "latitude": 32.2994074, "flag": false, "landmark": "Dental Office / Across from Mall", "order": 708}, {"stop_street": "Old Bullard", "geocoded_address": "", "next_cross_street": "Timber Wilde", "shelter": false, "longitude": null, "sign": true, "latitude": null, "flag": false, "landmark": "Across from Sears", "order": 709}, {"stop_street": "Old Bullard", "geocoded_address": "Rice Rd & Old Bullard Rd, Tyler, TX 75703, USA", "next_cross_street": "Rice", "shelter": false, "longitude": -95.304894700000006, "sign": true, "latitude": 32.294804200000002, "flag": false, "landmark": "Ashley Furniture", "order": 710}, {"stop_street": "Old Bullard", "geocoded_address": "Old Bullard Rd & Carriage Dr, Tyler, TX 75703, USA", "next_cross_street": "Carriage", "shelter": false, "longitude": -95.305593700000003, "sign": true, "latitude": 32.292263200000001, "flag": false, "landmark": "Rice School", "order": 711}, {"stop_street": "Old Bullard", "geocoded_address": "Old Bullard Rd & Chimney Rock Dr, Tyler, TX 75703, USA", "next_cross_street": "Chimney Rock", "shelter": false, "longitude": -95.306572799999998, "sign": true, "latitude": 32.285228199999999, "flag": false, "landmark": "Bullard Crossing Apartments", "order": 712}, {"stop_street": "Old Bullard", "geocoded_address": "Old Bullard Rd & Old Grande Blvd, Tyler, TX 75703, USA", "next_cross_street": "Old Grande", "shelter": false, "longitude": -95.306936500000006, "sign": true, "latitude": 32.282473899999999, "flag": false, "landmark": "Salada main entrance", "order": 713}, {"stop_street": "Old Bullard", "geocoded_address": "Old Bullard Rd & Old Grande Blvd, Tyler, TX 75703, USA", "next_cross_street": "Old Grande", "shelter": false, "longitude": -95.306936500000006, "sign": true, "latitude": 32.282473899999999, "flag": false, "landmark": "Salada at Grande", "order": 714}, {"stop_street": "Old Grande", "geocoded_address": "Old Grande Blvd & Wilshire Dr, Tyler, TX 75703, USA", "next_cross_street": "Wilshire", "shelter": false, "longitude": -95.310527800000003, "sign": true, "latitude": 32.281109600000001, "flag": false, "landmark": "", "order": 715}, {"stop_street": "Grande", "geocoded_address": "W Grande Blvd & Hollytree Dr, Tyler, TX 75703, USA", "next_cross_street": "Hollytree", "shelter": false, "longitude": -95.315537199999994, "sign": true, "latitude": 32.279894400000003, "flag": false, "landmark": "Hollytree Storage", "order": 716}, {"stop_street": "Grande", "geocoded_address": "", "next_cross_street": "", "shelter": false, "longitude": null, "sign": true, "latitude": null, "flag": false, "landmark": "Grande Hill Apartments", "order": 717}, {"stop_street": "Grande", "geocoded_address": "W Grande Blvd & Gleneagles Dr, Tyler, TX 75703, USA", "next_cross_street": "Glen Eagles", "shelter": false, "longitude": -95.329107899999997, "sign": true, "latitude": 32.2809162, "flag": false, "landmark": "Grande Assisted Living", "order": 718}, {"stop_street": "Grande", "geocoded_address": "Old Jacksonville Hwy & W Grande Blvd, Tyler, TX 75703, USA", "next_cross_street": "Old Jacksonville", "shelter": false, "longitude": -95.333222899999996, "sign": true, "latitude": 32.2809442, "flag": false, "landmark": "Texas Bank and Trust", "order": 719}, {"stop_street": "Old Jacksonville", "geocoded_address": "", "next_cross_street": "", "shelter": false, "longitude": null, "sign": true, "latitude": null, "flag": false, "landmark": "The Woodlands", "order": 720}, {"stop_street": "Old Jacksonville", "geocoded_address": "Old Jacksonville Hwy & Rice Rd, Tyler, TX 75701, USA", "next_cross_street": "Rice", "shelter": false, "longitude": -95.326567499999996, "sign": true, "latitude": 32.291751900000001, "flag": false, "landmark": "Vet Office", "order": 721}, {"stop_street": "Old Jacksonville", "geocoded_address": "", "next_cross_street": "", "shelter": false, "longitude": null, "sign": true, "latitude": null, "flag": false, "landmark": "Before Brookshires Wildlife Museum", "order": 722}, {"stop_street": "Old Jacksonville", "geocoded_address": "Old Jacksonville Hwy & W Southwest Loop 323, Tyler, TX 75701, USA", "next_cross_street": "Loop 323", "shelter": false, "longitude": -95.322648799999996, "sign": true, "latitude": 32.303654000000002, "flag": false, "landmark": "Brookshire's Wildlife Museum", "order": 723}, {"stop_street": "Loop 323", "geocoded_address": "W Southwest Loop 323 & Republic Dr, Tyler, TX 75701, USA", "next_cross_street": "Republic", "shelter": false, "longitude": -95.327774899999994, "sign": true, "latitude": 32.3036447, "flag": false, "landmark": "Fairfield Inn", "order": 724}, {"stop_street": "Loop 323", "geocoded_address": "W Southwest Loop 323 & Republic Dr, Tyler, TX 75701, USA", "next_cross_street": "Republic", "shelter": false, "longitude": -95.327774899999994, "sign": true, "latitude": 32.3036447, "flag": false, "landmark": "Golden China Cafe / Pawn Shop", "order": 725}, {"stop_street": "Loop 323", "geocoded_address": "", "next_cross_street": "", "shelter": false, "longitude": null, "sign": true, "latitude": null, "flag": false, "landmark": "Sweet Sue's", "order": 726}, {"stop_street": "Towne Park", "geocoded_address": "", "next_cross_street": "", "shelter": false, "longitude": null, "sign": true, "latitude": null, "flag": false, "landmark": "Villea of Pineridge", "order": 728}, {"stop_street": "Loop 323", "geocoded_address": "", "next_cross_street": "", "shelter": false, "longitude": null, "sign": true, "latitude": null, "flag": false, "landmark": "Winser Inn", "order": 729}, {"stop_street": "HWY 155", "geocoded_address": "Hwy 155 & Goss St, Tyler, TX 75701, USA", "next_cross_street": "Goss", "shelter": true, "longitude": -95.335111699999999, "sign": true, "latitude": 32.307433199999998, "flag": false, "landmark": "St. Louis Baptist Church", "order": 730}, {"stop_street": "HWY 155", "geocoded_address": "Hwy 155 & Seaton St, Tyler, TX 75701, USA", "next_cross_street": "Seaton", "shelter": false, "longitude": -95.3320887, "sign": true, "latitude": 32.311003999999997, "flag": false, "landmark": "Lone Star Storage", "order": 731}, {"stop_street": "HWY 155", "geocoded_address": "Hwy 155 & Luther St, Tyler, TX 75701, USA", "next_cross_street": "Luther", "shelter": false, "longitude": -95.329123600000003, "sign": true, "latitude": 32.314058699999997, "flag": false, "landmark": "City of Tyler Streets", "order": 732}, {"stop_street": "HWY 155", "geocoded_address": "Hwy 155 & Old Noonday Rd, Tyler, TX 75701, USA", "next_cross_street": "Old Noonday", "shelter": false, "longitude": -95.322235599999999, "sign": true, "latitude": 32.321260100000003, "flag": false, "landmark": "Fire Station", "order": 733}, {"stop_street": "HWY 155", "geocoded_address": "Hwy 155 & Sunnybrook Dr, Tyler, TX 75701, USA", "next_cross_street": "Sunnybrook", "shelter": false, "longitude": -95.313439900000006, "sign": true, "latitude": 32.3276471, "flag": false, "landmark": "East Texas Child Advocacy", "order": 734}, {"stop_street": "Sunnybrook", "geocoded_address": "", "next_cross_street": "Camilla", "shelter": false, "longitude": null, "sign": false, "latitude": null, "flag": true, "landmark": "Pedestrian Crosswalk", "order": 735}], "Green Line Southeast": [{"stop_street": "Donnybrook", "geocoded_address": "S Donnybrook Ave & E 6th St, Tyler, TX 75701, USA", "next_cross_street": "6th", "shelter": false, "longitude": -95.297521799999998, "sign": true, "latitude": 32.329455199999998, "flag": false, "landmark": "", "order": 601}, {"stop_street": "5th", "geocoded_address": "E 5th St & S Fleishel Ave, Tyler, TX 75701, USA", "next_cross_street": "Fleishel", "shelter": false, "longitude": -95.288743299999993, "sign": true, "latitude": 32.332026300000003, "flag": false, "landmark": "Tyler Medical Park", "order": 602}, {"stop_street": "5th", "geocoded_address": "E 5th St & S Baxter Ave, Tyler, TX 75701, USA", "next_cross_street": "Baxter", "shelter": false, "longitude": -95.2854533, "sign": true, "latitude": 32.332494799999999, "flag": false, "landmark": "Weiner Land", "order": 603}, {"stop_street": "5th", "geocoded_address": "E 5th St & S Mahon Ave, Tyler, TX 75701, USA", "next_cross_street": "Mahon", "shelter": false, "longitude": -95.282173700000001, "sign": true, "latitude": 32.332445300000003, "flag": false, "landmark": "Community Access", "order": 604}, {"stop_street": "5th", "geocoded_address": "E 5th St & Tipton Ave, Tyler, TX 75701, USA", "next_cross_street": "Tipton", "shelter": false, "longitude": -95.275012500000003, "sign": true, "latitude": 32.332233600000002, "flag": false, "landmark": "The Medicine Shop", "order": 605}, {"stop_street": "5th", "geocoded_address": "E 5th St & Golden Rd, Tyler, TX 75701, USA", "next_cross_street": "Golden", "shelter": false, "longitude": -95.272733900000006, "sign": true, "latitude": 32.332181499999997, "flag": false, "landmark": "Park Place Nurse", "order": 606}, {"stop_street": "5th", "geocoded_address": "E 5th St & S Southeast Loop 323, Tyler, TX 75701, USA", "next_cross_street": "Loop 323", "shelter": false, "longitude": -95.266216299999996, "sign": false, "latitude": 32.332354199999997, "flag": true, "landmark": "Dairy Queen", "order": 607}, {"stop_street": "Loop 323", "geocoded_address": "", "next_cross_street": "", "shelter": false, "longitude": null, "sign": true, "latitude": null, "flag": false, "landmark": "What-a-burger / Kidd Jones", "order": 608}, {"stop_street": "Loop 323", "geocoded_address": "", "next_cross_street": "", "shelter": false, "longitude": null, "sign": true, "latitude": null, "flag": false, "landmark": "Swann's Furniture", "order": 609}, {"stop_street": "Loop 323", "geocoded_address": "", "next_cross_street": "", "shelter": false, "longitude": null, "sign": true, "latitude": null, "flag": false, "landmark": "Aspen Place / Fox Run Apartments", "order": 610}, {"stop_street": "University", "geocoded_address": "University Blvd & Telephone Rd, Tyler, TX 75707, USA", "next_cross_street": "Telephone", "shelter": false, "longitude": -95.266341299999993, "sign": true, "latitude": 32.311654400000002, "flag": false, "landmark": "Franklin Bank", "order": 611}, {"stop_street": "University", "geocoded_address": "University Blvd & Lazy Creek Dr, Tyler, TX 75701, USA", "next_cross_street": "Lazy Creek", "shelter": false, "longitude": -95.258261599999997, "sign": true, "latitude": 32.311571399999998, "flag": false, "landmark": "Grace Communications School", "order": 612}, {"stop_street": "University", "geocoded_address": "", "next_cross_street": "UT Tyler", "shelter": false, "longitude": null, "sign": true, "latitude": null, "flag": false, "landmark": "Sterling House", "order": 613}, {"stop_street": "University", "geocoded_address": "", "next_cross_street": "", "shelter": false, "longitude": null, "sign": true, "latitude": null, "flag": false, "landmark": "ETMC Behavior Clinic", "order": 614}, {"stop_street": "Old Omen", "geocoded_address": "", "next_cross_street": "", "shelter": true, "longitude": null, "sign": true, "latitude": null, "flag": false, "landmark": "Across from UT", "order": 615}, {"stop_street": "Old Omen", "geocoded_address": "Old Omen Rd & Sandalwood Ln, Tyler, TX 75701, USA", "next_cross_street": "Sandlewood", "shelter": true, "longitude": -95.254825999999994, "sign": true, "latitude": 32.326239399999999, "flag": false, "landmark": "Rose Heights Church", "order": 616}, {"stop_street": "Old Omen", "geocoded_address": "", "next_cross_street": "Lemont", "shelter": false, "longitude": null, "sign": true, "latitude": null, "flag": false, "landmark": "Fair Wood Church", "order": 617}, {"stop_street": "5th", "geocoded_address": "E 5th St & S Southeast Loop 323, Tyler, TX 75701, USA", "next_cross_street": "Loop 323", "shelter": true, "longitude": -95.266216299999996, "sign": true, "latitude": 32.332354199999997, "flag": false, "landmark": "Taco Bell", "order": 618}, {"stop_street": "5th", "geocoded_address": "E 5th St & Golden Rd, Tyler, TX 75701, USA", "next_cross_street": "Golden", "shelter": false, "longitude": -95.272733900000006, "sign": true, "latitude": 32.332181499999997, "flag": false, "landmark": "Eye Care Associates", "order": 619}, {"stop_street": "5th", "geocoded_address": "E 5th St & Tipton Ave, Tyler, TX 75701, USA", "next_cross_street": "Tipton", "shelter": false, "longitude": -95.275012500000003, "sign": true, "latitude": 32.332233600000002, "flag": false, "landmark": "Dwayne Restaurant", "order": 620}, {"stop_street": "5th", "geocoded_address": "E 5th St & Palmer Ave, Tyler, TX 75701, USA", "next_cross_street": "Palmer", "shelter": false, "longitude": -95.280242000000001, "sign": true, "latitude": 32.332400399999997, "flag": false, "landmark": "TJC Fields", "order": 622}, {"stop_street": "5th", "geocoded_address": "E 5th St & S Baxter Ave, Tyler, TX 75701, USA", "next_cross_street": "Baxter", "shelter": true, "longitude": -95.2854533, "sign": true, "latitude": 32.332494799999999, "flag": false, "landmark": "TJC College", "order": 622}], "Yellow Line Southeast": [{"stop_street": "Old Troup", "geocoded_address": "", "next_cross_street": "Fleishel", "shelter": false, "longitude": null, "sign": true, "latitude": null, "flag": false, "landmark": "Vacant Lot", "order": 801}, {"stop_street": "Troup", "geocoded_address": "", "next_cross_street": "Green Acres", "shelter": false, "longitude": null, "sign": true, "latitude": null, "flag": false, "landmark": "Green Acres Shopping Center", "order": 802}, {"stop_street": "Troup", "geocoded_address": "Troup Hwy & Golden Rd, Tyler, TX 75701, USA", "next_cross_street": "Golden", "shelter": false, "longitude": -95.275707400000002, "sign": true, "latitude": 32.313943399999999, "flag": false, "landmark": "Bank of America", "order": 803}, {"stop_street": "Troup", "geocoded_address": "Troup Hwy & Lindbergh Dr, Tyler, TX 75703, USA", "next_cross_street": "Lindburgh", "shelter": false, "longitude": -95.271735800000002, "sign": true, "latitude": 32.307180700000004, "flag": false, "landmark": "Across from Texas Workforce", "order": 804}, {"stop_street": "Troup", "geocoded_address": "", "next_cross_street": "Hillside", "shelter": false, "longitude": null, "sign": true, "latitude": null, "flag": false, "landmark": "Highland Center", "order": 805}, {"stop_street": "Troup", "geocoded_address": "Troup Hwy & Kensington Dr, Tyler, TX 75703, USA", "next_cross_street": "Kensington", "shelter": true, "longitude": -95.266439099999999, "sign": true, "latitude": 32.299741300000001, "flag": false, "landmark": "Etcil", "order": 806}, {"stop_street": "Troup", "geocoded_address": "Troup Hwy & Shiloh Rd, Tyler, TX 75707, USA", "next_cross_street": "Shiloh", "shelter": true, "longitude": -95.261390500000005, "sign": true, "latitude": 32.295393699999998, "flag": false, "landmark": "Chase Bank", "order": 807}, {"stop_street": "Shiloh", "geocoded_address": "Shiloh Rd & Thistle Dr, Tyler, TX 75703, USA", "next_cross_street": "Thistle", "shelter": false, "longitude": -95.266641199999995, "sign": true, "latitude": 32.295332899999998, "flag": false, "landmark": "Chelsea Creek Apartments", "order": 808}, {"stop_street": "Shiloh", "geocoded_address": "Shiloh Rd & Kirkcaldey Dr, Tyler, TX 75703, USA", "next_cross_street": "Kirkcaldey", "shelter": false, "longitude": -95.272359600000001, "sign": true, "latitude": 32.295332500000001, "flag": false, "landmark": "Hidden Springs Apartments", "order": 809}, {"stop_street": "Shiloh", "geocoded_address": "Shiloh Rd & Edinburgh Dr, Tyler, TX 75703, USA", "next_cross_street": "Edinburgh", "shelter": false, "longitude": -95.268462200000002, "sign": true, "latitude": 32.295337799999999, "flag": false, "landmark": "Shiloh Road Mobile Park", "order": 810}, {"stop_street": "Shiloh", "geocoded_address": "Shiloh Rd & Edinburgh Dr, Tyler, TX 75703, USA", "next_cross_street": "Edinburgh", "shelter": false, "longitude": -95.268462200000002, "sign": false, "latitude": 32.295337799999999, "flag": false, "landmark": "Hidden Springs Apartments", "order": 811}, {"stop_street": "Paluxy", "geocoded_address": "Paluxy Dr & Shiloh Rd, Tyler, TX 75703, USA", "next_cross_street": "Shiloh", "shelter": false, "longitude": -95.278834000000003, "sign": true, "latitude": 32.295289599999997, "flag": false, "landmark": "The Ridge Apartments", "order": 812}, {"stop_street": "Paluxy", "geocoded_address": "Paluxy Dr & Sequoia Dr, Tyler, TX 75703, USA", "next_cross_street": "Sequoia", "shelter": true, "longitude": -95.278895500000004, "sign": true, "latitude": 32.301551699999997, "flag": false, "landmark": "Meadowbrook Apartments", "order": 813}, {"stop_street": "Linburgh", "geocoded_address": "Troup Hwy & Lindbergh Dr, Tyler, TX 75703, USA", "next_cross_street": "Troup", "shelter": false, "longitude": -95.271735800000002, "sign": true, "latitude": 32.307180700000004, "flag": false, "landmark": "ETMC Sleep Center", "order": 814}, {"stop_street": "Rickety", "geocoded_address": "Southpark Dr & Rickety Ln, Tyler, TX 75703, USA", "next_cross_street": "Southpark", "shelter": false, "longitude": -95.275788300000002, "sign": true, "latitude": 32.3071956, "flag": false, "landmark": "Paluxy Square", "order": 815}, {"stop_street": "Troup", "geocoded_address": "Troup Hwy & Lindbergh Dr, Tyler, TX 75703, USA", "next_cross_street": "Linberg", "shelter": true, "longitude": -95.271735800000002, "sign": true, "latitude": 32.307180700000004, "flag": false, "landmark": "Super One Foods", "order": 816}, {"stop_street": "Troup", "geocoded_address": "Troup Hwy & Golden Rd, Tyler, TX 75701, USA", "next_cross_street": "Golden", "shelter": false, "longitude": -95.275707400000002, "sign": true, "latitude": 32.313943399999999, "flag": false, "landmark": "Texico", "order": 817}, {"stop_street": "Old Troup", "geocoded_address": "", "next_cross_street": "Fleishel", "shelter": false, "longitude": null, "sign": true, "latitude": null, "flag": false, "landmark": "Firestation #7", "order": 818}], "Red Line South": [{"stop_street": "Broadway", "geocoded_address": "", "next_cross_street": "Old Troup Hwy", "shelter": false, "longitude": -95.290539999999993, "sign": true, "latitude": 32.332030000000003, "flag": false, "landmark": "Off Broadway Shopping Center", "order": 201}, {"stop_street": "Broadway", "geocoded_address": "S Broadway Ave & Wilma St, Tyler, TX 75701, USA", "next_cross_street": "Wilma", "shelter": true, "longitude": -95.3006314, "sign": true, "latitude": 32.320614800000001, "flag": false, "landmark": "Azalea Post Office", "order": 202}, {"stop_street": "Broadway", "geocoded_address": "S Broadway Ave & Fair Ln, Tyler, TX 75701, USA", "next_cross_street": "Fair Lane", "shelter": false, "longitude": -95.300690900000006, "sign": true, "latitude": 32.316275599999997, "flag": false, "landmark": "Before intersection", "order": 203}, {"stop_street": "Broadway", "geocoded_address": "S Broadway Ave & E Amherst St, Tyler, TX 75701, USA", "next_cross_street": "Amherst", "shelter": false, "longitude": -95.3006721, "sign": true, "latitude": 32.311809500000003, "flag": false, "landmark": "Barclay Apartments", "order": 204}, {"stop_street": "Broadway", "geocoded_address": "S Broadway Ave & Winchester Dr, Tyler, TX 75701, USA", "next_cross_street": "Winchester", "shelter": true, "longitude": -95.300653600000004, "sign": true, "latitude": 32.309232000000002, "flag": false, "landmark": "Department of Human Resources", "order": 205}, {"stop_street": "Broadway", "geocoded_address": "S Broadway Ave & Shelley Dr, Tyler, TX 75701, USA", "next_cross_street": "Shelly", "shelter": true, "longitude": -95.300672000000006, "sign": true, "latitude": 32.304456000000002, "flag": false, "landmark": "Burger King", "order": 206}, {"stop_street": "Broadway", "geocoded_address": "S Broadway Ave & W Southwest Loop 323, Tyler, TX 75701, USA", "next_cross_street": "Loop 323", "shelter": false, "longitude": -95.300753599999993, "sign": true, "latitude": 32.302901499999997, "flag": false, "landmark": "On the Border", "order": 207}, {"stop_street": "Broadway", "geocoded_address": "S Broadway Ave & Rice Rd & Shiloh Rd, Tyler, TX 75703, USA", "next_cross_street": "Shiloh / Rice", "shelter": true, "longitude": -95.301557799999998, "sign": true, "latitude": 32.294875099999999, "flag": false, "landmark": "Broadway Mall / Sears", "order": 208}, {"stop_street": "Broadway", "geocoded_address": "", "next_cross_street": "After Shiloh", "shelter": true, "longitude": -95.302300000000002, "sign": true, "latitude": 32.292009999999998, "flag": false, "landmark": "Times Square Shopping Center", "order": 209}, {"stop_street": "Broadway", "geocoded_address": "S Broadway Ave & W Rieck Rd, Tyler, TX 75703, USA", "next_cross_street": "Rieck", "shelter": false, "longitude": -95.303257299999999, "sign": true, "latitude": 32.289474900000002, "flag": false, "landmark": "Sonic", "order": 210}, {"stop_street": "Broadway", "geocoded_address": "S Broadway Ave & Chimney Rock Dr, Tyler, TX 75703, USA", "next_cross_street": "Chimney Rock", "shelter": false, "longitude": -95.304597299999998, "sign": true, "latitude": 32.284822900000002, "flag": false, "landmark": "Audio Video Center", "order": 211}, {"stop_street": "Broadway", "geocoded_address": "S Broadway Ave & W Grande Blvd, Tyler, TX 75703, USA", "next_cross_street": "Grande", "shelter": false, "longitude": -95.305814799999993, "sign": true, "latitude": 32.279896700000002, "flag": false, "landmark": "Bank of America", "order": 212}, {"stop_street": "Broadway", "geocoded_address": "", "next_cross_street": "", "shelter": false, "longitude": -95.3065, "sign": true, "latitude": 32.277589999999996, "flag": false, "landmark": "Little Red School House", "order": 213}, {"stop_street": "Broadway", "geocoded_address": "", "next_cross_street": "", "shelter": false, "longitude": -95.306600000000003, "sign": true, "latitude": 32.276429999999998, "flag": false, "landmark": "Cheddars", "order": 214}, {"stop_street": "South Town", "geocoded_address": "S Broadway Ave & E South Town Dr, Tyler, TX 75703, USA", "next_cross_street": "Broadway", "shelter": true, "longitude": -95.306796399999996, "sign": true, "latitude": 32.274069699999998, "flag": false, "landmark": "Walmart / Target", "order": 215}, {"stop_street": "Thigpen", "geocoded_address": "", "next_cross_street": "", "shelter": false, "longitude": -95.307699999999997, "sign": true, "latitude": 32.272350000000003, "flag": false, "landmark": "Carretas / Braums", "order": 216}, {"stop_street": "Thigpen", "geocoded_address": "Thigpen Rd & Gatewood Dr, Tyler, TX 75703, USA", "next_cross_street": "Gatewood", "shelter": false, "longitude": -95.307957000000002, "sign": false, "latitude": 32.272357800000002, "flag": true, "landmark": "Brookhollow Apartments", "order": 217}, {"stop_street": "Waljim", "geocoded_address": "", "next_cross_street": "", "shelter": false, "longitude": -95.311750000000004, "sign": true, "latitude": 32.271099999999997, "flag": false, "landmark": "Brookside Village", "order": 218}, {"stop_street": "Muller Garden", "geocoded_address": "", "next_cross_street": "", "shelter": false, "longitude": -95.307000000000002, "sign": true, "latitude": 32.268790000000003, "flag": false, "landmark": "Harborwood Apartments", "order": 219}, {"stop_street": "Broadway", "geocoded_address": "", "next_cross_street": "Heritage", "shelter": false, "longitude": -95.307199999999995, "sign": true, "latitude": 32.268639999999998, "flag": false, "landmark": "Carmike Theater", "order": 220}, {"stop_street": "Heritage", "geocoded_address": "", "next_cross_street": "", "shelter": false, "longitude": -95.308199999999999, "sign": true, "latitude": 32.26652, "flag": false, "landmark": "Capital One Bank", "order": 221}, {"stop_street": "Broadway", "geocoded_address": "", "next_cross_street": "", "shelter": false, "longitude": -95.306539999999998, "sign": true, "latitude": 32.275889999999997, "flag": false, "landmark": "Don's Appliances / Piano Store", "order": 222}, {"stop_street": "Broadway", "geocoded_address": "S Broadway Ave & W Grande Blvd, Tyler, TX 75703, USA", "next_cross_street": "Grande", "shelter": false, "longitude": -95.305814799999993, "sign": true, "latitude": 32.279896700000002, "flag": false, "landmark": "East Texas Medical Center", "order": 223}, {"stop_street": "Broadway", "geocoded_address": "S Broadway Ave & W Rieck Rd, Tyler, TX 75703, USA", "next_cross_street": "Rieck", "shelter": true, "longitude": -95.303257299999999, "sign": true, "latitude": 32.289474900000002, "flag": false, "landmark": "Ryan's Steak House", "order": 224}, {"stop_street": "Broadway", "geocoded_address": "S Broadway Ave & Rice Rd & Shiloh Rd, Tyler, TX 75703, USA", "next_cross_street": "Shiloh / Rice", "shelter": false, "longitude": -95.301557799999998, "sign": true, "latitude": 32.294875099999999, "flag": false, "landmark": "CVS / Barnes and Nobles", "order": 225}, {"stop_street": "Broadway", "geocoded_address": "S Broadway Ave & Independence Pl, Tyler, TX 75703, USA", "next_cross_street": "Independence", "shelter": false, "longitude": -95.3006235, "sign": true, "latitude": 32.2988195, "flag": false, "landmark": "Chase Bank", "order": 226}, {"stop_street": "Broadway", "geocoded_address": "S Broadway Ave & Winchester Dr, Tyler, TX 75701, USA", "next_cross_street": "Winchester", "shelter": false, "longitude": -95.300653600000004, "sign": true, "latitude": 32.309232000000002, "flag": false, "landmark": "McDonald's", "order": 227}, {"stop_street": "Broadway", "geocoded_address": "S Broadway Ave & E Amherst St, Tyler, TX 75701, USA", "next_cross_street": "Amherst", "shelter": false, "longitude": -95.3006721, "sign": true, "latitude": 32.311809500000003, "flag": false, "landmark": "Taco Bell", "order": 228}, {"stop_street": "Broadway", "geocoded_address": "S Broadway Ave & E Amherst St, Tyler, TX 75701, USA", "next_cross_street": "Amherst", "shelter": true, "longitude": -95.3006721, "sign": true, "latitude": 32.311809500000003, "flag": false, "landmark": "Pep Boys", "order": 229}, {"stop_street": "Broadway", "geocoded_address": "S Broadway Ave & Wilma St, Tyler, TX 75701, USA", "next_cross_street": "Wilma", "shelter": false, "longitude": -95.3006314, "sign": true, "latitude": 32.320614800000001, "flag": false, "landmark": "Timbers Apartments", "order": 230}], "Blue Line Northwest": [{"stop_street": "4th", "geocoded_address": "W 4th St & S College Ave, Tyler, TX 75701, USA", "next_cross_street": "College", "shelter": false, "longitude": -95.302664899999996, "sign": true, "latitude": 32.332025700000003, "flag": false, "landmark": "Bergfield Park", "order": 301}, {"stop_street": "Glenwood", "geocoded_address": "W Glenwood Blvd & Kennedy Ave, Tyler, TX 75701, USA", "next_cross_street": "Kennedy", "shelter": false, "longitude": -95.308465400000003, "sign": true, "latitude": 32.3315743, "flag": false, "landmark": "Plyler School", "order": 302}, {"stop_street": "Glenwood", "geocoded_address": "S Glenwood Blvd & S Vine Ave, Tyler, TX 75701, USA", "next_cross_street": "Vine", "shelter": false, "longitude": -95.311252899999999, "sign": true, "latitude": 32.332234999999997, "flag": false, "landmark": "Fire Station", "order": 303}, {"stop_street": "Glenwood", "geocoded_address": "S Glenwood Blvd & Lindsey Ln, Tyler, TX 75701, USA", "next_cross_street": "Lindsey", "shelter": false, "longitude": -95.312885699999995, "sign": true, "latitude": 32.337879299999997, "flag": false, "landmark": "Water Tower", "order": 304}, {"stop_street": "Glenwood", "geocoded_address": "S Glenwood Blvd & W Houston St, Tyler, TX 75702, USA", "next_cross_street": "Houston", "shelter": false, "longitude": -95.312407100000001, "sign": true, "latitude": 32.343734099999999, "flag": false, "landmark": "Tire Barn", "order": 305}, {"stop_street": "Glenwood", "geocoded_address": "W Front St & S Glenwood Blvd, Tyler, TX 75702, USA", "next_cross_street": "Front", "shelter": false, "longitude": -95.315729399999995, "sign": false, "latitude": 32.346624800000001, "flag": true, "landmark": "ETMC Offices", "order": 306}, {"stop_street": "Glenwood", "geocoded_address": "N Glenwood Blvd & W Lollar St, Tyler, TX 75702, USA", "next_cross_street": "Loller", "shelter": false, "longitude": -95.319213099999999, "sign": true, "latitude": 32.354367699999997, "flag": false, "landmark": "Toni Smith Auto", "order": 307}, {"stop_street": "Glenwood", "geocoded_address": "N Glenwood Blvd & Forest Ave, Tyler, TX 75702, USA", "next_cross_street": "Forest", "shelter": false, "longitude": -95.318997800000005, "sign": true, "latitude": 32.361543099999999, "flag": false, "landmark": "Fun Forrest", "order": 308}, {"stop_street": "Gentry", "geocoded_address": "W Gentry Pkwy & N Glenwood Blvd, Tyler, TX 75702, USA", "next_cross_street": "Glenwood", "shelter": true, "longitude": -95.318980199999999, "sign": true, "latitude": 32.362212, "flag": false, "landmark": "Hickory Fare Rest", "order": 309}, {"stop_street": "Gentry", "geocoded_address": "W Gentry Pkwy & N Parkdale Dr, Tyler, TX 75702, USA", "next_cross_street": "Parkdale Drive", "shelter": false, "longitude": -95.323598099999998, "sign": true, "latitude": 32.365403299999997, "flag": false, "landmark": "Ace Check Cashing", "order": 310}, {"stop_street": "Gentry", "geocoded_address": "W Gentry Pkwy & W Martin Luther King Jr Blvd, Tyler, TX 75702, USA", "next_cross_street": "MLK", "shelter": false, "longitude": -95.326975399999995, "sign": true, "latitude": 32.367443299999998, "flag": false, "landmark": "Zoo", "order": 311}, {"stop_street": "Gentry", "geocoded_address": "Rte 110 & Van Hwy & W Gentry Pkwy, Tyler, TX 75702, USA", "next_cross_street": "Van HWY/110", "shelter": false, "longitude": -95.331106700000007, "sign": true, "latitude": 32.369684700000001, "flag": false, "landmark": "Taco Bell", "order": 312}, {"stop_street": "Gentry", "geocoded_address": "W Gentry Pkwy & Baldwin Dr, Tyler, TX 75702, USA", "next_cross_street": "Baldwin", "shelter": false, "longitude": -95.332131799999999, "sign": true, "latitude": 32.371003999999999, "flag": false, "landmark": "Tyler Day Nursery", "order": 313}, {"stop_street": "Gentry", "geocoded_address": "W Gentry Pkwy & Jordan St, Tyler, TX 75702, USA", "next_cross_street": "Jordan", "shelter": true, "longitude": -95.332012599999999, "sign": true, "latitude": 32.376317999999998, "flag": false, "landmark": "McDonald's", "order": 314}, {"stop_street": "Gentry", "geocoded_address": "", "next_cross_street": "", "shelter": false, "longitude": -95.331599999999995, "sign": true, "latitude": 32.379249999999999, "flag": false, "landmark": "Across from Motel 6", "order": 315}, {"stop_street": "Loop 323", "geocoded_address": "", "next_cross_street": "Hwy 89 North", "shelter": true, "longitude": -95.333299999999994, "sign": true, "latitude": 32.380580000000002, "flag": false, "landmark": "Quality Inn", "order": 316}, {"stop_street": "Loop 323", "geocoded_address": "Texas 323 Loop & Silver Creek Dr, Tyler, TX 75702, USA", "next_cross_street": "Silver Creek Drive", "shelter": false, "longitude": -95.338993900000006, "sign": true, "latitude": 32.378797300000002, "flag": false, "landmark": "12 Oaks Motel", "order": 317}, {"stop_street": "Loop 323", "geocoded_address": "Texas 323 Loop & Cope St, Tyler, TX 75702, USA", "next_cross_street": "Cope", "shelter": false, "longitude": -95.343388399999995, "sign": false, "latitude": 32.372565100000003, "flag": true, "landmark": "Car Wash", "order": 318}, {"stop_street": "Loop 323", "geocoded_address": "Texas 323 Loop & Garden Valley Rd, Tyler, TX 75704, USA", "next_cross_street": "Garden Valley", "shelter": false, "longitude": -95.343318699999998, "sign": true, "latitude": 32.368538700000002, "flag": false, "landmark": "Family Dollar", "order": 319}, {"stop_street": "Loop 323", "geocoded_address": "Texas 323 Loop & Lion Dr, Tyler, TX 75702, USA", "next_cross_street": "Lion Lane", "shelter": true, "longitude": -95.343312900000001, "sign": true, "latitude": 32.361816400000002, "flag": false, "landmark": "John Tyler High School", "order": 320}, {"stop_street": "Erwin", "geocoded_address": "", "next_cross_street": "Loop 323", "shelter": false, "longitude": -95.340199999999996, "sign": true, "latitude": 32.352490000000003, "flag": false, "landmark": "Greenbrier Nursing Home", "order": 321}, {"stop_street": "Erwin", "geocoded_address": "W Erwin St & Willowbrook Ave, Tyler, TX 75702, USA", "next_cross_street": "Willowbrook", "shelter": false, "longitude": -95.335538299999996, "sign": true, "latitude": 32.351514100000003, "flag": false, "landmark": "Across from Country Club", "order": 322}, {"stop_street": "Erwin", "geocoded_address": "", "next_cross_street": "", "shelter": false, "longitude": null, "sign": true, "latitude": null, "flag": false, "landmark": "Cross Roads Apartments", "order": 323}, {"stop_street": "Erwin", "geocoded_address": "W Erwin St & S Lyons Ave, Tyler, TX 75702, USA", "next_cross_street": "Lyons", "shelter": false, "longitude": -95.326263499999996, "sign": true, "latitude": 32.350197700000002, "flag": false, "landmark": "Across from Save-a-lot", "order": 324}, {"stop_street": "Lyons", "geocoded_address": "W Front St & S Lyons Ave, Tyler, TX 75702, USA", "next_cross_street": "Front", "shelter": false, "longitude": -95.326196300000007, "sign": true, "latitude": 32.346536499999999, "flag": false, "landmark": "Andrews Center", "order": 325}, {"stop_street": "Front", "geocoded_address": "", "next_cross_street": "", "shelter": true, "longitude": -95.323499999999996, "sign": true, "latitude": 32.346530000000001, "flag": false, "landmark": "Rose Garden / Harvey Convention Center", "order": 326}, {"stop_street": "Front", "geocoded_address": "W Front St & S Fenton Ave, Tyler, TX 75702, USA", "next_cross_street": "Fenton", "shelter": false, "longitude": -95.319271999999998, "sign": true, "latitude": 32.346566000000003, "flag": false, "landmark": "The Children's Place", "order": 327}, {"stop_street": "Front", "geocoded_address": "W Front St & S Hill Ave, Tyler, TX 75702, USA", "next_cross_street": "Hill", "shelter": false, "longitude": -95.318044900000004, "sign": true, "latitude": 32.346586700000003, "flag": false, "landmark": "Cotton Belt Building", "order": 328}, {"stop_street": "Glenwood", "geocoded_address": "S Glenwood Blvd & Shaw St, Tyler, TX 75701, USA", "next_cross_street": "Shaw", "shelter": false, "longitude": -95.312930600000001, "sign": true, "latitude": 32.336897999999998, "flag": false, "landmark": "Water Tower", "order": 329}, {"stop_street": "Glenwood", "geocoded_address": "W Glenwood Blvd & Kennedy Ave, Tyler, TX 75701, USA", "next_cross_street": "Kennedy", "shelter": false, "longitude": -95.308465400000003, "sign": true, "latitude": 32.3315743, "flag": false, "landmark": "Across from Plyer School", "order": 330}, {"stop_street": "Glenwood", "geocoded_address": "W Glenwood Blvd & S Robertson Ave, Tyler, TX 75701, USA", "next_cross_street": "Robertson", "shelter": false, "longitude": -95.306530699999996, "sign": true, "latitude": 32.331059400000001, "flag": false, "landmark": "Before intersection", "order": 331}, {"stop_street": "5th", "geocoded_address": "Chilton Ave & W 5th St, Tyler, TX 75701, USA", "next_cross_street": "Chilton", "shelter": false, "longitude": -95.304715200000004, "sign": true, "latitude": 32.331023000000002, "flag": false, "landmark": "Before intersection", "order": 332}], "Green Line Northeast": [{"stop_street": "Donnybrook", "geocoded_address": "", "next_cross_street": "6th", "shelter": false, "longitude": -95.297499999999999, "sign": true, "latitude": 32.329300000000003, "flag": false, "landmark": "", "order": 501}, {"stop_street": "Beckham", "geocoded_address": "", "next_cross_street": "", "shelter": false, "longitude": -95.290800000000004, "sign": true, "latitude": 32.333199999999998, "flag": false, "landmark": "Donut Palace", "order": 502}, {"stop_street": "Beckham", "geocoded_address": "S Beckham Ave & E Lake St, Tyler, TX 75701, USA", "next_cross_street": "Lake", "shelter": true, "longitude": -95.291454000000002, "sign": true, "latitude": 32.336353000000003, "flag": false, "landmark": "ETMC Hospital", "order": 503}, {"stop_street": "Beckham", "geocoded_address": "S Beckham Ave & E Dawson St, Tyler, TX 75701, USA", "next_cross_street": "Dawson", "shelter": true, "longitude": -95.292775199999994, "sign": true, "latitude": 32.342259200000001, "flag": false, "landmark": "Trinity Mother Francis", "order": 504}, {"stop_street": "Beckham", "geocoded_address": "E Front St & S Beckham Ave, Tyler, TX 75702, USA", "next_cross_street": "Front", "shelter": false, "longitude": -95.294262500000002, "sign": true, "latitude": 32.346648399999999, "flag": false, "landmark": "Dairy Queen", "order": 505}, {"stop_street": "Beckham", "geocoded_address": "S Beckham Ave & E Elm St, Tyler, TX 75702, USA", "next_cross_street": "Elm", "shelter": false, "longitude": -95.294290099999998, "sign": true, "latitude": 32.349570200000002, "flag": false, "landmark": "Good S. Church", "order": 506}, {"stop_street": "Beckham", "geocoded_address": "N Beckham Ave & E Locust St, Tyler, TX 75702, USA", "next_cross_street": "Locust", "shelter": false, "longitude": -95.294369500000002, "sign": true, "latitude": 32.352632, "flag": false, "landmark": "Across from Mexican Meat Market", "order": 507}, {"stop_street": "HWY 271", "geocoded_address": "", "next_cross_street": "", "shelter": false, "longitude": -95.292559999999995, "sign": true, "latitude": 32.360999999999997, "flag": false, "landmark": "Super One Foods", "order": 508}, {"stop_street": "HWY 271", "geocoded_address": "U.S. 271 & Hillsboro St, Tyler, TX 75702, USA", "next_cross_street": "Hillsboro", "shelter": false, "longitude": -95.289886300000006, "sign": true, "latitude": 32.365110399999999, "flag": false, "landmark": "Family Dollar", "order": 509}, {"stop_street": "HWY 271", "geocoded_address": "U.S. 271 & E Laurel St, Tyler, TX 75702, USA", "next_cross_street": "Laurel", "shelter": false, "longitude": -95.289458699999997, "sign": true, "latitude": 32.366359199999998, "flag": false, "landmark": "Fred's", "order": 510}, {"stop_street": "HWY 271", "geocoded_address": "U.S. 271 & E Martin Luther King Jr Blvd, Tyler, TX 75702, USA", "next_cross_street": "MLK", "shelter": false, "longitude": -95.2884119, "sign": true, "latitude": 32.369905899999999, "flag": false, "landmark": "Relax Inn", "order": 511}, {"stop_street": "MLK", "geocoded_address": "", "next_cross_street": "Haynie", "shelter": false, "longitude": -95.292810000000003, "sign": true, "latitude": 32.320180000000001, "flag": false, "landmark": "", "order": 512}, {"stop_street": "MLK", "geocoded_address": "E Martin Luther King Jr Blvd & Church Ave, Tyler, TX 75702, USA", "next_cross_street": "Church St", "shelter": false, "longitude": -95.297117, "sign": true, "latitude": 32.370168, "flag": false, "landmark": "", "order": 513}, {"stop_street": "MLK", "geocoded_address": "E Martin Luther King Jr Blvd & N Spring Ave, Tyler, TX 75702, USA", "next_cross_street": "North Spring", "shelter": false, "longitude": -95.299637000000004, "sign": true, "latitude": 32.370172400000001, "flag": false, "landmark": "", "order": 514}, {"stop_street": "Broadway", "geocoded_address": "N Broadway Ave & W Nutbush St, Tyler, TX 75702, USA", "next_cross_street": "Nutbush", "shelter": false, "longitude": -95.301866899999993, "sign": true, "latitude": 32.369146600000001, "flag": false, "landmark": "Rail Road Crossing", "order": 515}, {"stop_street": "Broadway", "geocoded_address": "N Broadway Ave & W Cedar St, Tyler, TX 75702, USA", "next_cross_street": "Cedar", "shelter": false, "longitude": -95.301542900000001, "sign": true, "latitude": 32.363840600000003, "flag": false, "landmark": "", "order": 516}, {"stop_street": "Broadway", "geocoded_address": "N Broadway Ave & W Queen St, Tyler, TX 75702, USA", "next_cross_street": "Queen", "shelter": false, "longitude": -95.301543800000005, "sign": true, "latitude": 32.361588400000002, "flag": false, "landmark": "City Park", "order": 517}, {"stop_street": "Gentry", "geocoded_address": "W Gentry Pkwy & N Broadway Ave, Tyler, TX 75702, USA", "next_cross_street": "Broadway", "shelter": false, "longitude": -95.301250400000001, "sign": true, "latitude": 32.359457999999997, "flag": false, "landmark": "Health District", "order": 518}, {"stop_street": "Gentry", "geocoded_address": "E Gentry Pkwy & N Beckham Ave, Tyler, TX 75702, USA", "next_cross_street": "Beckham", "shelter": false, "longitude": -95.293402299999997, "sign": true, "latitude": 32.359894500000003, "flag": false, "landmark": "Old WIC Office", "order": 519}, {"stop_street": "Oakwood", "geocoded_address": "", "next_cross_street": "Spring", "shelter": false, "longitude": -95.299350000000004, "sign": true, "latitude": 32.354599999999998, "flag": false, "landmark": "Tyler Transit Office", "order": 520}, {"stop_street": "Beckham", "geocoded_address": "N Beckham Ave & E Locust St, Tyler, TX 75702, USA", "next_cross_street": "Locust", "shelter": false, "longitude": -95.294369500000002, "sign": true, "latitude": 32.352632, "flag": false, "landmark": "Mexican Meat Market", "order": 521}, {"stop_street": "Beckham", "geocoded_address": "S Beckham Ave & E Elm St, Tyler, TX 75702, USA", "next_cross_street": "Elm", "shelter": false, "longitude": -95.294290099999998, "sign": true, "latitude": 32.349570200000002, "flag": false, "landmark": "Mexican Hair Dresser", "order": 522}, {"stop_street": "Front", "geocoded_address": "E Front St & S Beckham Ave, Tyler, TX 75702, USA", "next_cross_street": "Beckham", "shelter": false, "longitude": -95.294262500000002, "sign": true, "latitude": 32.346648399999999, "flag": false, "landmark": "Dairy Queen", "order": 523}, {"stop_street": "Front", "geocoded_address": "E Front St & S Baxter Ave, Tyler, TX 75702, USA", "next_cross_street": "Baxter", "shelter": false, "longitude": -95.285526599999997, "sign": true, "latitude": 32.346341799999998, "flag": false, "landmark": "St. Paul Church", "order": 524}, {"stop_street": "Front", "geocoded_address": "E Front St & Palmer Ave, Tyler, TX 75702, USA", "next_cross_street": "Palmer", "shelter": false, "longitude": -95.280337799999998, "sign": true, "latitude": 32.3463718, "flag": false, "landmark": "Dehaven Eye Clinic", "order": 525}, {"stop_street": "Front", "geocoded_address": "E Front St & Old Henderson Hwy, Tyler, TX 75702, USA", "next_cross_street": "Old Henderson", "shelter": false, "longitude": -95.274149199999997, "sign": true, "latitude": 32.346663399999997, "flag": false, "landmark": "Fruit Stand", "order": 526}, {"stop_street": "Golden", "geocoded_address": "", "next_cross_street": "", "shelter": false, "longitude": null, "sign": true, "latitude": null, "flag": false, "landmark": "Salvation Army Apartments", "order": 527}, {"stop_street": "Golden", "geocoded_address": "", "next_cross_street": "", "shelter": false, "longitude": -95.272800000000004, "sign": true, "latitude": 32.335940000000001, "flag": false, "landmark": "Moore Middle School", "order": 528}, {"stop_street": "Golden", "geocoded_address": "E 5th St & Golden Rd, Tyler, TX 75701, USA", "next_cross_street": "5th", "shelter": false, "longitude": -95.272733900000006, "sign": true, "latitude": 32.332181499999997, "flag": false, "landmark": "", "order": 529}, {"stop_street": "5th", "geocoded_address": "E 5th St & Tipton Ave, Tyler, TX 75701, USA", "next_cross_street": "Tipton", "shelter": false, "longitude": -95.275012500000003, "sign": true, "latitude": 32.332233600000002, "flag": false, "landmark": "Dewayne Restaurant", "order": 530}, {"stop_street": "5th", "geocoded_address": "E 5th St & Palmer Ave, Tyler, TX 75701, USA", "next_cross_street": "Palmer", "shelter": false, "longitude": -95.280242000000001, "sign": true, "latitude": 32.332400399999997, "flag": false, "landmark": "After Light at Church", "order": 532}, {"stop_street": "5th", "geocoded_address": "E 5th St & S Baxter Ave, Tyler, TX 75701, USA", "next_cross_street": "Baxter", "shelter": true, "longitude": -95.2854533, "sign": true, "latitude": 32.332494799999999, "flag": false, "landmark": "TJC College", "order": 533}]}